,CITY,COUNTY,LAT,LONG,NAME_OTHER,FACILITY_TYPE,DESCRIPTION,FAC_STATUS,drcm_Longitude,drcm_Latitude,drc_Longitude,drc_Latitude,prisch_Longitude,prisch_Latitude,LONGLAT,pubsch_Longitude,pubsch_Latitude,emf_Longitude,emf_Latitude,eoc_Longitude,eoc_Latitude,ra_Longitude,ra_Latitude,TTL_BEDS,hf_Longitude,hf_Latitude
0, ,ALACHUA,29.46812305,-82.15818111,RIMES-LAKECREST AIRPORT,AIRPORT,"RIMES, JOHN P.O. BOX 188  WORTHINGTON SPRINGS FL 32697",Active,,,,,,,,,,,,,,,,,,
1, ,ALACHUA,29.73416666,-82.56527777,SULLIVAN FIELD,AIRPORT,20638 NW 78TH AVENUE  ALACHUA FL 32615,Active,,,,,,,,,,,,,,,,,,
2,GAINESVILLE,ALACHUA,29.69869444,-82.49148611,LINK FIELD,AIRPORT,"ESKRIDGE, MARTY 14705 MAIN STREET  ALACHUA FL 32615",Active,,,,,,,,,,,,,,,,,,
3,GAINESVILLE,ALACHUA,29.70248611,-82.42570833,GLEIM FIELD,AIRPORT,"GLEIM, IRVIN P.O. BOX 12848, UNIVERSITY STN  GAINESVILLE FL 32604",Active,,,,,,,,,,,,,,,,,,
4,GAINESVILLE,ALACHUA,29.69005555,-82.27177777,GAINESVILLE REGIONAL AIRPORT,AIRPORT,3880 NORTHEAST 39TH AVENUE  GAINESVILLE FL 32609,Active,,,,,,,,,,,,,,,,,,
5,ARCHER,ALACHUA,29.55715277,-82.49674999,PEACH ORCHARD AIRPORT,AIRPORT,"HELPLING, RAY 14208 SW ARCHER ROAD  ARCHER FL 32618",Active,,,,,,,,,,,,,,,,,,
6,ARCHER,ALACHUA,29.61802222,-82.50871944,FLYING TEN AIRPORT,AIRPORT,3906 SOUTHWEST 154 STREET  ARCHER FL 32618,Active,,,,,,,,,,,,,,,,,,
7,MELROSE,ALACHUA,29.71524444,-82.09672222,FLYING HORSEMAN RANCH AIRPORT,AIRPORT,"KTL HOLDINGS, LLC 810 NW 6TH STREET GAINESVILLE FL 32601",Active,,,,,,,,,,,,,,,,,,
8,ALACHUA,ALACHUA,29.91008333,-82.47787499,SANTA FE RIVER RANCH AIRPORT,AIRPORT,"DAVIS, SNEAD 29210 NW 122ND STREET  ALACHUA FL 32615-3240",Active,,,,,,,,,,,,,,,,,,
9,MACCLENNY,BAKER,30.34172222,-82.13002777,THRIFT AIRPORT,AIRPORT,"THRIFT, DALE 5671 HARLEY THRIFT RD.  MACCLENNY FL 32063-9552",Active,,,,,,,,,,,,,,,,,,
10,SANDERSON,BAKER,30.36238888,-82.22469444,CUYLER FIELD AIRPORT,AIRPORT,"MILLER, CURTIS 10750 SOUTH RUNWAY CIRCLE  GLEN-ST. MARY FL 32040",Active,,,,,,,,,,,,,,,,,,
11,PANAMA CITY,BAY,30.06996388,-85.57649444,TYNDALL AFB,AIRPORT,COMMAND POST 850-283-2155 U.S. AIR FORCE PANAMA CITY FL ,Active,,,,,,,,,,,,,,,,,,
12,PANAMA CITY,BAY,30.10222222,-85.46242222,SANDY CREEK AIRPARK,AIRPORT,SANDY CREEK AIR PARK OWNERS ASSOC. 12901 PARK WAY PANAMA CITY FL 32404,Active,,,,,,,,,,,,,,,,,,
13,PANAMA CITY,BAY,30.35824166,-85.79560277,NORTHWEST FLORIDA-BEACHES INTERNATIONAL AIRPORT,AIRPORT,6300 WEST BAY PARKWAY  PANAMA CITY BEACH FL 32409,Active,,,,,,,,,,,,,,,,,,
14, ,BAY,30.41408611,-85.74576388,COURT MARTIAL RANCH AIRPORT,AIRPORT,"GARRETT, TOMMY 5801 HIGHWAY 79  VERNON FL 32462",Active,,,,,,,,,,,,,,,,,,
15, ,BAY,30.39166666,-85.80833333,TURKEYSCRATCH PLANTATION AIRPORT,AIRPORT,N/A  LAMONT FL N/A,Active,,,,,,,,,,,,,,,,,,
16,STARKE,BRADFORD,30.05487499,-82.17633055,STATE PRISON FIELD,AIRPORT,"SUTTON, BRIAN FLORIDA DEPT OF CORRECTIONS 7819 NW 228TH STREET RAIFORD FL 32026-1000",Active,,,,,,,,,,,,,,,,,,
17,STARKE,BRADFORD,29.84440833,-82.03343611,Keystone Heights Airpark,AIRPORT,7100 AIRPORT ROAD  STARKE FL 32091-9347,Active,,,,,,,,,,,,,,,,,,
18,PATRICK AFB,BREVARD,28.46750027,-80.56643888,CAPE CANAVERAL AFS SKID STRIP,AIRPORT,COMMAND POST 854-494-7001 U.S. AIR FORCE COCOA BEACH FL ,Active,,,,,,,,,,,,,,,,,,
19,PATRICK AFB,BREVARD,28.23945555,-80.60755277,PATRICK AFB,AIRPORT,COMMAND POST 854-494-7001 U.S. AIR FORCE COCOA BEACH FL ,Active,,,,,,,,,,,,,,,,,,
20, ,BREVARD,27.87529999,-80.51644166,WHEELER FARMS PRIVATE AIRPORT,AIRPORT,4533 MICCO ROAD  MICCO FL 32976,Active,,,,,,,,,,,,,,,,,,
21,ORLANDO,BREVARD,28.61499444,-80.69449444,NASA SHUTTLE LANDING FACILITY,AIRPORT,FL ,Active,,,,,,,,,,,,,,,,,,
22,ROCKLEDGE,BREVARD,28.29833333,-80.71861111,ROCKLEDGE AIRPORT,AIRPORT,"MARDOSA,RONALD A. 500 BARNES BLVD.  ROCKLEDGE FL 32955",Active,,,,,,,,,,,,,,,,,,
23,ALTHA,CALHOUN,30.46408333,-85.17714166,CLARKSVILLE EXECUTIVE AIRPORT,AIRPORT,12759 NORTHWEST AIRPORT TRAIL  CLARKSVILLE FL 32430,Active,,,,,,,,,,,,,,,,,,
24,ALTHA,CALHOUN,30.51824999,-85.19881111,CATTLE CREEK RANCH AIRPORT,AIRPORT,"BYRD, ANDREW 23620 NW STATE ROAD 73  ALTHA FL 32421",Active,,,,,,,,,,,,,,,,,,
25,ALTHA,CALHOUN,30.43194444,-85.28888888,RON WOOD AIRPORT,AIRPORT,"WOOD, RONAL P.O. BOX 150 6036 STATE ROAD 20 WEST CLARKSVILLE FL 32430",Active,,,,,,,,,,,,,,,,,,
26, ,CALHOUN,30.52027777,-85.38472222,MARAN AIRPORT,AIRPORT,22303 NW LONGLEAF  FOUNTAIN FL 32438,Active,,,,,,,,,,,,,,,,,,
27,CLARKSVILLE,CALHOUN,30.42019444,-85.30047777,STEEP HEAD FARM AIRPORT,AIRPORT,"MAYO, ROBERT P.O. BOX 49 CLARKSVILLE FL 32430",Active,,,,,,,,,,,,,,,,,,
28, ,CHARLOTTE,26.95258055,-81.87094166,ADANA AIRFIELD,AIRPORT,5640 ACORN RANCH RD  PUNTA GORDA FL 33982,Active,,,,,,,,,,,,,,,,,,
29,PLACIDA,CHARLOTTE,26.85450833,-82.25120555,CORAL CREEK AIRPORT,AIRPORT,11901 GASSPARILLA ROAD  PLACIDA FL 33946,Active,,,,,,,,,,,,,,,,,,
30,PUNTA GORDA,CHARLOTTE,26.93728055,-81.56702222,PAYSON RANCH AIRPORT,AIRPORT,"EDWARDS, RONALD 660 BEACHLAND BLVD  VERO BEACH FL 32963",Active,,,,,,,,,,,,,,,,,,
31,PUNTA GORDA,CHARLOTTE,26.96894722,-81.91564166,SHELL CREEK AIRPARK,AIRPORT,36880 WASHINGTON LOOP ROAD  PUNTA GORDA FL 33982,Active,,,,,,,,,,,,,,,,,,
32,PUNTA GORDA,CHARLOTTE,26.92019444,-81.99051388,PUNTA GORDA AIRPORT,AIRPORT,28000 A-1 AIRPORT ROAD  PUNTA GORDA FL 33982-2453,Active,,,,,,,,,,,,,,,,,,
33,DUNNELLON,CITRUS,29.00361111,-82.55527777,J. R.S STOLPORT,AIRPORT,"RIZZO, JOHN P.O. BOX 2171 DUNNELLON FL 34433",Active,,,,,,,,,,,,,,,,,,
34,HERNANDO,CITRUS,28.98827777,-82.37294444,TWELVE OAKS AIRPORT,AIRPORT,"GILBERT, BEN P.O. BOX 34  HOLDER FL 34445",Active,,,,,,,,,,,,,,,,,,
35,HOMOSASSA,CITRUS,28.85611111,-82.55511111,POST OAK RANCH AIRPORT,AIRPORT,"GROSS, GEORGE 101 VALARE LANE  CRYSTAL RIVER FL 34429-4730",Active,,,,,,,,,,,,,,,,,,
36, ,CITRUS,29.00664111,-82.40456999,SEVEN FEATHERS AIRPORT,AIRPORT,"FAUNCE, JOHN 1786 EAST WITHLACOOCHEE TRAIL  DUNNELLON FL 34434",Active,,,,,,,,,,,,,,,,,,
37,GREEN COVE SPRINGS,CLAY,29.90431944,-81.68512499,HALLERS AIRPARK,AIRPORT,BERNARD (BUZZ) GLADE 1692 VILLAGE WAY ORANGE PARK FL 32073,Active,,,,,,,,,,,,,,,,,,
38,GREEN COVE SPRINGS,CLAY,29.97141666,-81.65727777,CLAY COUNTY / REYNOLDS AIRPARK,AIRPORT,"BROWN, JOHN P.O. BOX 477 1065 BULKHEAD ROAD GREEN COVE SPRINGS FL 32043",Active,,,,,,,,,,,,,,,,,,
39,MIDDLEBURG,CLAY,30.04370833,-81.88516666,Williams Field Airport,AIRPORT,"WILLIAMS, KENT 4273 BLUEBERRY STREET  MIDDLEBURG FL 32068",Active,,,,,,,,,,,,,,,,,,
40,MIDDLEBURG,CLAY,30.06404166,-81.96759722,SPENCERS AIRPARK,AIRPORT,"SPENCER, PHILLIP 5543-1 CARTER SPENCER ROAD  MIDDLEBURG FL 32068",Active,,,,,,,,,,,,,,,,,,
41,STARKE,CLAY,29.96690833,-81.98315833,CAMP BLANDING AAF/NG,AIRPORT,OPERATIONS CENTER 904-823-0461 ARMY NATIONAL GUARD STARKE FL ,Active,,,,,,,,,,,,,,,,,,
42,OCHOPEE,COLLIER,26.05453611,-81.06784722,CALUSA RANCH AIRPORT,AIRPORT,"DRAKE, WAYNE 662 NOTTINGHAM FOREST CIRCLE  JACKSONVILLE FL 32259",Active,,,,,,,,,,,,,,,,,,
43,OCHOPEE,COLLIER,26.030925,-81.03868055,LITTLE DEER AIRPORT,AIRPORT,"MUNZ, PINKY 23600 SW 162ND AVENUE  HOMESTEAD FL 33031",Active,,,,,,,,,,,,,,,,,,
44,OCHOPEE,COLLIER,25.98092777,-81.05673611,ROMOR RANCH AIRPORT,AIRPORT,98610 OVERSEAS HWY.  KEY LARGO FL 33037,Active,,,,,,,,,,,,,,,,,,
45,OCHOPEE,COLLIER,25.86180555,-80.897,DADE-COLLIER TRAINING AND TRANSITION AIRPORT,AIRPORT,54757 EAST TAMIAMI TRAIL  OCHOPPI FL 34141,Active,,,,,,,,,,,,,,,,,,
46,OCHOPEE,COLLIER,25.84871111,-81.39008055,EVERGLADES AIRPARK,AIRPORT,650 EVERGLADES CITY  AIRPARK ROAD  EVERGLADES CITY FL 34139,Active,,,,,,,,,,,,,,,,,,
47,NAPLES,COLLIER,26.11675833,-81.70314166,WING SOUTH AIRPORT,AIRPORT,"WING SOUTH, INC. 4130 SKYWAY DRIVE  NAPLES FL 34112",Active,,,,,,,,,,,,,,,,,,
48,NAPLES,COLLIER,26.15262027,-81.77529444,NAPLES MUNICIPAL AIRPORT,AIRPORT,160 AVIATION DRIVE NORTH  NAPLES FL 34104-3568,Active,,,,,,,,,,,,,,,,,,
49,NAPLES,COLLIER,25.99504166,-81.67253055,MARCO ISLAND AIRPORT,AIRPORT,2005 MAINSAIL DRIVE  NAPLES FL 34114,Active,,,,,,,,,,,,,,,,,,
50,LAKE CITY,COLUMBIA,30.24566666,-82.77861111,WELLBORN STOLPORT,AIRPORT,"SMITH, KENNETH 10512 NW LAKE JEFFERY ROAD  WELLBORN FL 32094",Active,,,,,,,,,,,,,,,,,,
51,LAKE CITY,COLUMBIA,30.14719444,-82.56888888,ROSSI FIELD,AIRPORT,"ROSSI DRIVE, LLC 3025 MIDDLESEX ROAD ORLANDO FL 32803",Active,,,,,,,,,,,,,,,,,,
52,LAKE CITY,COLUMBIA,30.04384722,-82.60391666,LAKE CITY AIRPARK,AIRPORT,P.O. BOX 1902  LAKE CITY FL 32056,Active,,,,,,,,,,,,,,,,,,
53,LAKE CITY,COLUMBIA,30.15573611,-82.66734722,CANNON CREEK AIRPORT,AIRPORT,"SESSIONS, RAYMOND 2409 SW SISTER'S WELCOME RD STE101  LAKE CITY FL 32025",Active,,,,,,,,,,,,,,,,,,
54,LAKE CITY,COLUMBIA,30.18203888,-82.57692777,LAKE CITY GATEWAY AIRPORT,AIRPORT,3524 EAST U.S. HIGHWAY 90  LAKE CITY FL 32055,Active,,,,,,,,,,,,,,,,,,
55,FORT WHITE,COLUMBIA,29.92591666,-82.69309722,BRADLEY AIRSTRIP,AIRPORT,"BRADLEY, JUANITA P.O. BOX 337  FORT WHITE FL 32038",Active,,,,,,,,,,,,,,,,,,
56,FORT WHITE,COLUMBIA,29.87598611,-82.63888888,LAZY S FARMS AIRPORT,AIRPORT,"POPIEL, ROBERT 698 SW RASBERRY COURT  FT. WHITE FL 32038",Active,,,,,,,,,,,,,,,,,,
57, ,DESOTO,27.05555555,-81.97055555,SUNNY BREEZE AIRPORT,AIRPORT,SUNNYBREEZE AIRPORT LLC 8355 SW LIVERPOOL DRIVE  ARCADIA FL 34269,Active,,,,,,,,,,,,,,,,,,
58, ,DESOTO,27.20027777,-81.74972222,BRIGHT HOUR RANCH AIRPORT,AIRPORT,"BATEMAN, ROWDY 2100 SE BRIGHT HOUR GRADE  ARCADIA FL 34266",Active,,,,,,,,,,,,,,,,,,
59,ARCADIA,DESOTO,27.04255555,-82.04369999,LAKE SUZY ESTATES AIRPORT,AIRPORT,GERALD DOWNS 11970 SW KINGSWAY CIR LAKE SUZY FL 34269,Active,,,,,,,,,,,,,,,,,,
60,ARCADIA,DESOTO,27.12060833,-81.84980555,CARLSTROM FIELD,AIRPORT,"THOMPSON, HALDEN 7115 SE AIRFIELD AVENUE  ARCADIA FL 34266",Active,,,,,,,,,,,,,,,,,,
61,ARCADIA,DESOTO,27.30393333,-81.88036111,FRIERSON GROVE AIRPORT,AIRPORT,"SLATER, FRENNACE 2144 N. W. BROWNSVILLE ST & N.WJERRY TER.. ARCADIA FL 34265",Active,,,,,,,,,,,,,,,,,,
62,ARCADIA,DESOTO,27.19699444,-81.91563888,MCDONALDS FIELD,AIRPORT,"MCDONALD, RONALD 1529 SW CR 661 ARCADIA FL 34266",Active,,,,,,,,,,,,,,,,,,
63,ARCADIA,DESOTO,27.05116666,-81.84813888,HENNESSY AIRPORT,AIRPORT,11751 SE HEAD AVE  ARCADIA FL 34266,Active,,,,,,,,,,,,,,,,,,
64,ARCADIA,DESOTO,27.19199444,-81.83730277,ARCADIA MUNICIPAL AIRPORT,AIRPORT,"2269 SOUTHEAST A.C. POLK, JR. DRIVE  ARCADIA FL 34266",Active,,,,,,,,,,,,,,,,,,
65,JACKSONVILLE,DUVAL,30.24098611,-81.44990277,DEEP FOREST AIRPORT,AIRPORT,"CATHEY, JOHN P.O. BOX 16771  JACKSONVILLE FL 32245",Active,,,,,,,,,,,,,,,,,,
66,JACKSONVILLE,DUVAL,30.39190555,-81.42369722,MAYPORT NS (ADM DAVID L. MCDONALD FIELD),AIRPORT,BASE OPERATIONS 904-270-6130 U.S. NAVY MAYPORT FL ,Active,,,,,,,,,,,,,,,,,,
67,JACKSONVILLE,DUVAL,30.23468333,-81.67648333,JACKSONVILLE NAS /TOWERS FIELD/,AIRPORT,BASE OPERATIONS 904-542-2511 U.S. NAVY JACKSONVILLE FL ,Active,,,,,,,,,,,,,,,,,,
68,JACKSONVILLE,DUVAL,30.35023888,-81.88316111,WHITEHOUSE NOLF,AIRPORT,QUARTERDECK 904-270-5401 U.S. NAVY JACKSONVILLE FL ,Active,,,,,,,,,,,,,,,,,,
69,JACKSONVILLE,DUVAL,30.27523888,-81.80537777,HERLONG RECREATIONAL AIRPORT,AIRPORT,9300 NORMANDY BOULEVARD  JACKSONVILLE FL 32221-5522,Active,,,,,,,,,,,,,,,,,,
70,JACKSONVILLE,DUVAL,30.33632222,-81.51445,JACKSONVILLE EXECUTIVE AT CRAIG AIRPORT,AIRPORT,855-11 SAINT JOHNS BLUFF ROAD NORTH  JACKSONVILLE FL 32225,Active,,,,,,,,,,,,,,,,,,
71,JACKSONVILLE,DUVAL,30.49405555,-81.68786111,JACKSONVILLE INTERNATIONAL AIRPORT,AIRPORT,14110 PECAN PARK ROAD  JACKSONVILLE FL 32218,Active,,,,,,,,,,,,,,,,,,
72,JACKSONVILLE,DUVAL,30.21867305,-81.87666444,CECIL AIRPORT,AIRPORT,13365 SIMPSON WAY  JACKSONVILLE FL 32221-5522,Active,,,,,,,,,,,,,,,,,,
73, ,DUVAL,30.15869444,-81.67294444,RIVERGATE LANDING,AIRPORT,"GREEN, ALAN 12918 RIVERPLACE COURT  JACKSONVILLE FL 32223",Active,,,,,,,,,,,,,,,,,,
74,PENSACOLA,ESCAMBIA,30.46972222,-87.33805555,SAUFLEY FIELD NOLF,AIRPORT,OPERATIONS CENTER 850-623-7333 U.S. NAVY PENSACOLA FL ,Active,,,,,,,,,,,,,,,,,,
75,PENSACOLA,ESCAMBIA,30.35297777,-87.32024999,PENSACOLA NAS / FORREST SHERMAN FIELD,AIRPORT,OPERATIONS CENTER 850-452-3100 U.S. NAVY PENSACOLA FL ,Active,,,,,,,,,,,,,,,,,,
76,PENSACOLA,ESCAMBIA,30.47330555,-87.18744444,PENSACOLA INTERNATIONAL AIRPORT,AIRPORT,2430 AIRPORT BLVD SUITE 225 PENSACOLA FL 32504,Active,,,,,,,,,,,,,,,,,,
77,PENSACOLA,ESCAMBIA,30.53188888,-87.38530555,COASTAL AIRPORT,AIRPORT,6001 WEST NINE MILE ROAD  PENSACOLA FL 32526,Active,,,,,,,,,,,,,,,,,,
78,PENSACOLA,ESCAMBIA,30.39825,-87.34888888,FERGUSON AIRPORT,AIRPORT,9750 AILERON AVENUE  PENSACOLA FL 32506,Active,,,,,,,,,,,,,,,,,,
79,WALNUT HILL,ESCAMBIA,30.81407499,-87.47498055,MCKINNON AIRPARK,AIRPORT,"SIMARD, THOMAS 6001 SOUTH HIGHWAY 99  WALNUT HILL FL 32568",Active,,,,,,,,,,,,,,,,,,
80,MC DAVID,ESCAMBIA,30.82713055,-87.35831111,COLLIER PINE BARREN AIRPORT,AIRPORT,"COLLIER, NEAL 3251 SOUTH PINE BARREN ROAD  MCDAVID FL 32568",Active,,,,,,,,,,,,,,,,,,
81,CARRABELLE,FRANKLIN,29.80978055,-84.58809444,DOG ISLAND AIRPORT,AIRPORT,"CANNON, RANDY HC 63, BOX 5037  CARRABELLE FL 32322",Active,,,,,,,,,,,,,,,,,,
82,CARRABELLE,FRANKLIN,29.842,-84.70111111,CARRABELLE - THOMPSON AIRPORT,AIRPORT,296 AIRPORT ROAD  CARRABELLE FL 32322,Active,,,,,,,,,,,,,,,,,,
83, ,GADSDEN,30.61194444,-84.64166666,WATSON FARM AIRPORT,AIRPORT,"WATSON, DAVID 3403 SOLOMON DAIRY ROAD  QUINCY FL 32352",Active,,,,,,,,,,,,,,,,,,
84, ,GADSDEN,30.6525,-84.47472222,SARANAC FARM AIRPORT,AIRPORT,"POINT MILLIGAN ROAD, COUNTY ROAD 161  HAVANA FL N/A",Active,,,,,,,,,,,,,,,,,,
85, ,GADSDEN,30.59527777,-84.42194444,DOGWOOD  FARMS AIRPORT,AIRPORT,"VALDENE, GUY 606 ROBIN LANE  HAVANA FL 32333",Active,,,,,,,,,,,,,,,,,,
86,HAVANA,GADSDEN,30.67936111,-84.36907222,RUTTEN DUSTING STRIP,AIRPORT,"RUTTEN, LOUIS ""DANNY"" 1836 CONCORD BAINBRIDGE ROAD  HAVANA FL 32333",Active,,,,,,,,,,,,,,,,,,
87,BELL,GILCHRIST,29.68988888,-82.87277777,SAW WHET FARMS AIRPORT,AIRPORT,"WORTHMANN, THOMAS 4009 COUNTY ROAD 232 WEST  BELL FL 32619",Active,,,,,,,,,,,,,,,,,,
88,BELL,GILCHRIST,29.81362499,-82.92583333,SHADY BEND AIRPORT,AIRPORT,"CROOK, TRACY 5500 NW 72ND WAY  BELL FL 32619",Active,,,,,,,,,,,,,,,,,,
89,BELL,GILCHRIST,29.71944444,-82.84406944,FLYING HARNESS FARM AIRPORT,AIRPORT,1710 SW 15TH STREET  BELL FL 32619,Active,,,,,,,,,,,,,,,,,,
90,BRANFORD,GILCHRIST,29.88851388,-82.79781944,FOX FIELD,AIRPORT,"MANNA, RONALD 10350 NE 5TH AVENUE  BRANFORD FL 32008",Active,,,,,,,,,,,,,,,,,,
91, ,GILCHRIST,29.69233333,-82.72916666,RUSH AIRFIELD,AIRPORT,"RUSH, VIRGIL 3319 SE 40TH WAY  TRENTON FL 32693",Active,,,,,,,,,,,,,,,,,,
92, ,GLADES,26.87816083,-81.14007638,LYKES MOORE HAVEN AIRPORT,AIRPORT,"ZAHN, WAYNE 106 SW CR 721  OKEECHOBEE FL 34974",Active,,,,,,,,,,,,,,,,,,
93, ,GLADES,26.79777777,-81.525,FLYING L AIRPORT,AIRPORT,"LUMLEY, WILLIAM 7320 SKYLINE DRIVE  DELRAY BEACH FL 33446",Active,,,,,,,,,,,,,,,,,,
94, ,GLADES,26.91916666,-81.56244444,LYKES SILVER LAKE PRIVATE AIRPORT,AIRPORT,"ZAHN, WAYNE 106 SW CR 721  OKEECHOBEE FL 34974",Active,,,,,,,,,,,,,,,,,,
95,OKEECHOBEE,GLADES,27.18893611,-81.08701111,LYKES BRIGHTON AIRPORT,AIRPORT,106 SW CR 721  OKEECHOBEE FL 34974,Active,,,,,,,,,,,,,,,,,,
96,LABELLE,GLADES,26.80034166,-81.48507777,SUNDANCE FARMS AIRPORT,AIRPORT,"MUNZ, CHARLES 23600 SW 162 AVE  HOMESTEAD FL 33031",Active,,,,,,,,,,,,,,,,,,
97, ,HAMILTON,30.50021055,-83.18358166,SQUIRES AVIATION RANCH AIRPORT,AIRPORT,"SQUIRES, ROBIN 3414 NW 44TH STREET  JASPER FL 32052",Active,,,,,,,,,,,,,,,,,,
98, ,HAMILTON,30.46027777,-83.14777777,DJ FARM AIRPORT,AIRPORT,6299 SW 52 LANE  JASPER FL 32052,Active,,,,,,,,,,,,,,,,,,
99,JENNINGS,HAMILTON,30.62186111,-83.25947222,BIRD FIELD,AIRPORT,"BIRD, FRANK 435 NW 18TH PLACE  JENNINGS FL 32053",Active,,,,,,,,,,,,,,,,,,
100,WAUCHULA,HARDEE,27.62083333,-81.61083333,CREWS HOMESTEAD RANCH AIRPORT,AIRPORT,"CREWS, CHRISTY P.O. BOX 1669  AVON PARK FL 33826-1669",Active,,,,,,,,,,,,,,,,,,
101,WAUCHULA,HARDEE,27.51364999,-81.88063888,WAUCHULA MUNICIPAL AIRPORT,AIRPORT,1202 MAURICE SONNY CLAVEL ROAD  WAUCHULA FL 33873,Active,,,,,,,,,,,,,,,,,,
102,ZOLFO SPRINGS,HARDEE,27.41893055,-81.83258333,GRIFFINS PEACE RIVER RANCH AIRPORT,AIRPORT,"HURST, STEWART P.O. BOX 127  FROSTPROOF FL 33843",Active,,,,,,,,,,,,,,,,,,
103,CLEWISTON,HENDRY,26.39388888,-81.02305555,MCDANIEL RANCH AIRPORT,AIRPORT,"MCDANIEL, DAVID (PARTNER/PILOT) 32595 COUNTY ROAD 833  CLEWISTON FL 33440",Active,,,,,,,,,,,,,,,,,,
104,CLEWISTON,HENDRY,26.32027777,-80.98777777,BIG CYPRESS AIRFIELD,AIRPORT,35201 EAGLES LANDING  CLEWISTON FL 33440,Active,,,,,,,,,,,,,,,,,,
105,CLEWISTON,HENDRY,26.73055555,-81.16388888,HARPERS FLY-IN RANCH AIRPORT,AIRPORT,"HARPER, ROBERT 14825 CENTER AVENUE  CLEWISTON FL 33440",Active,,,,,,,,,,,,,,,,,,
106,CLEWISTON,HENDRY,26.74200833,-81.04978888,AIRGLADES AIRPORT,AIRPORT,3200 AIRGLADES BOULEVARD  CLEWISTON FL 33440,Active,,,,,,,,,,,,,,,,,,
107, ,HENDRY,26.45083333,-81.00055555,DEVILS GARDEN STRIP,AIRPORT,"ZIPPERER, R DOUGLAS P.O. BOX 640  FORT MYERS FL 33902",Active,,,,,,,,,,,,,,,,,,
108,ALVA,HENDRY,26.73895555,-81.50618888,WILLIAMS SKY MANOR AIRPORT,AIRPORT,"WILLIAMS, WILLIAM 4205 FORT DENAUD ROAD  LA BELLE FL 33935",Active,,,,,,,,,,,,,,,,,,
109,ALVA,HENDRY,26.76833333,-81.53888888,SOUTHPOINT AIRPORT,AIRPORT,"MORRISION, ROBERT 110 KIRBY THOMPSON ROAD  FORT DENAUD FL 33935",Active,,,,,,,,,,,,,,,,,,
110,LABELLE,HENDRY,26.7134,-81.53535555,COTTON STRIP,AIRPORT,"SHULTS, MICHAEL 6190A WEST STATE ROAD 80  LABELLE FL 33935",Active,,,,,,,,,,,,,,,,,,
111,LABELLE,HENDRY,26.52305555,-81.40833333,CHARLTON STRIP,AIRPORT,"CHARLTON, JOHN P.O. BOX 56  FELDA FL 33930",Active,,,,,,,,,,,,,,,,,,
112,LABELLE,HENDRY,26.57944444,-81.48388888,DUDA AIRSTRIP,AIRPORT,TRACY DUDA CHAPMAN 12250 SOUTH HWY. 29  FELDA FL 33930,Active,,,,,,,,,,,,,,,,,,
113,LABELLE,HENDRY,26.74423277,-81.43257555,LA BELLE MUNICIPAL AIRPORT,AIRPORT,99 EAST COWBOY WAY  LABELLE FL 33975-1607,Active,,,,,,,,,,,,,,,,,,
114,BROOKSVILLE,HERNANDO,28.61930555,-82.36888888,CHINESEGUT AIRPORT,AIRPORT,"SELPH, DEBRA D. SELPH 22270 PILOTS PATH BROOKSVILLE FL 34601",Active,,,,,,,,,,,,,,,,,,
115,BROOKSVILLE,HERNANDO,28.47359722,-82.45542222,HERNANDO COUNTY AIRPORT,AIRPORT,15800 FLIGHT PATH DRIVE  BROOKSVILLE FL 34604,Active,,,,,,,,,,,,,,,,,,
116, ,HERNANDO,28.53972222,-82.30472222,GRAND VISTA RANCH,AIRPORT,26756 MONDON HILL ROAD  BROOKSVILLE FL 34601,Active,,,,,,,,,,,,,,,,,,
117, ,HIGHLANDS,27.37888888,-81.15,LYKES FT. BASINGER AIRSTRIP,AIRPORT,"TODD, THOMAS 490 BUCKHORN ROAD  LORIDA FL 33857",Active,,,,,,,,,,,,,,,,,,
118,LAKE PLACID,HIGHLANDS,27.24560277,-81.41312777,PLACID LAKES AIRPORT,AIRPORT,215 SENECA DR NW  LAKE PLACID FL 33852,Active,,,,,,,,,,,,,,,,,,
119,LAKE PLACID,HIGHLANDS,27.35309722,-81.40812777,LAKE PERSIMMON AIRSTRIP,AIRPORT,"SNAVELY, BILL 115 HEINLEY ROAD  LAKE PLACID FL 33852-8137",Active,,,,,,,,,,,,,,,,,,
120,LAKE PLACID,HIGHLANDS,27.23805555,-81.39055555,VINCES AIRPORT,AIRPORT,"PETERS, TRACY 3950 PLACID VIEW DRIVE  LAKE PLACID FL 33852",Active,,,,,,,,,,,,,,,,,,
121,VENUS,HIGHLANDS,27.16255,-81.54285555,BLUE HEAD RANCH,AIRPORT,"BUNCE, YVONNE PO BOX 1318  LAKE WALES FL 33859",Active,,,,,,,,,,,,,,,,,,
122,TAMPA,HILLSBOROUGH,27.84919166,-82.52148333,MACDILL AFB,AIRPORT,COMMAND POST 813-828-4361 U.S. AIR FORCE TAMPA FL ,Active,,,,,,,,,,,,,,,,,,
123,TAMPA,HILLSBOROUGH,28.00863055,-82.34981388,TAMPA EXECUTIVE AIRPORT,AIRPORT,6582 EUREKA SPRINGS ROAD  TAMPA FL 33610,Active,,,,,,,,,,,,,,,,,,
124,TAMPA,HILLSBOROUGH,27.91557777,-82.44926111,PETER O KNIGHT AIRPORT,AIRPORT,825 SEVERN AVENUE  TAMPA FL 33606,Active,,,,,,,,,,,,,,,,,,
125,TAMPA,HILLSBOROUGH,27.97547222,-82.54991666,TAMPA INTERNATIONAL AIRPORT,AIRPORT,4100 GEORGE J. BEAN PARKWAY  TAMPA FL 33607,Active,,,,,,,,,,,,,,,,,,
126, ,HILLSBOROUGH,27.68444444,-82.24416666,GYRO TOWN USA STOLPORT,AIRPORT,19242 GRANGE HALL LP  WIMAUMA FL 33598,Active,,,,,,,,,,,,,,,,,,
127, ,HILLSBOROUGH,27.80583333,-82.14,STANCHESTER AIRPORT,AIRPORT,"DEWHURST, SEBASTIAN 12722 MANNHURST OAK LANE  LITHIA FL 33547",active,,,,,,,,,,,,,,,,,,
128, ,HILLSBOROUGH,28.14444444,-82.16111111,BLACKWATER CREEK ULTRALIGHT PARK,AIRPORT,"CANNON, ROY BLACKWATER ULTRALIGHT FLIGHTPARK, INC. 9002 STATE  PLANT CITY FL 33566",Active,,,,,,,,,,,,,,,,,,
129, ,HILLSBOROUGH,28.04166666,-82.0925,MIDWAY LAKE AIRPORT,AIRPORT,"VERNER, EDWARD P.O. BOX 1118  PLANT CITY FL 33564",Active,,,,,,,,,,,,,,,,,,
130,LITHIA,HILLSBOROUGH,27.71166666,-82.28305555,WIMAUMA AIRPARK,AIRPORT,"MCCRAW, PEARL 6505 HWY 674 WIMAUMA FL 33598",Active,,,,,,,,,,,,,,,,,,
131,FELLSMERE,INDIAN RIVER,27.74169444,-80.66616666,FELLSMERE AIRPORT,AIRPORT,"CHANDLER, DAVID 7735 COUNTY ROAD 512  FELLSMERE FL 32948",Active,,,,,,,,,,,,,,,,,,
132,VERO BEACH,INDIAN RIVER,27.56253611,-80.49977499,FLY IN RANCHES AIRPORT,AIRPORT,"YOUNGBLOOD, BOB 2450 84TH AVENUE SW  VERO BEACH FL 32968",Active,,,,,,,,,,,,,,,,,,
133,VERO BEACH,INDIAN RIVER,27.59864444,-80.50199722,INDIAN RIVER AERODROME,AIRPORT,"IRAPOA, INC. 460 SOPWITH DR. VERO BEACH FL 32968",Active,,,,,,,,,,,,,,,,,,
134,VERO BEACH,INDIAN RIVER,27.70864166,-80.45283055,BROOCKE AIRPATCH,AIRPORT,"BROOCKE, W 6185 65TH STREET  VERO BEACH FL 32967",Active,,,,,,,,,,,,,,,,,,
135,VERO BEACH,INDIAN RIVER,27.65555833,-80.41794444,VERO BEACH MUNICIPAL AIRPORT,AIRPORT,3400 CHEROKEE DRIVE P.O. BOX 1389 VERO BEACH FL 32961-1389,Active,,,,,,,,,,,,,,,,,,
136,VERO BEACH,INDIAN RIVER,27.632255,-80.52755444,NEW HIBISCUS AIRPARK,AIRPORT,1890 98TH AVENUE  VERO BEACH FL 32966,Active,,,,,,,,,,,,,,,,,,
137,GRAND RIDGE,JACKSON,30.71527777,-85.02444444,LAWRENCE AIRPORT,AIRPORT,"LAWRENCE, GODFREY 6835 HIWAY  90  GRAND RIDGE FL 32442",Active,,,,,,,,,,,,,,,,,,
138,GREENWOOD,JACKSON,30.88824388,-85.16770722,CHIPOLA AIRPARK,AIRPORT,"BAKER, BOBBY P.O. BOX 5729  MARIANNA FL 32447-5729",Active,,,,,,,,,,,,,,,,,,
139, ,JACKSON,30.6075,-85.02583333,YODER AIRPORT,AIRPORT,620 HIGHWAY 69  GRAND RIDGE FL 32442,Active,,,,,,,,,,,,,,,,,,
140, ,JACKSON,30.6725,-85.08333333,FOLSOM AIRPORT,AIRPORT,"FOLSOM, GARY & SHIRLEY 6155 ROCKY CREEK ROAD  MARIANNA FL 32448",Active,,,,,,,,,,,,,,,,,,
141,SNEADS,JACKSON,30.72527777,-84.9177,KILPATRICK FARM AIRPORT,AIRPORT,"KILPATRICK, KEN 158 RICE ROAD  CHATTAHOOCHEE FL 32324",Active,,,,,,,,,,,,,,,,,,
142,GRACEVILLE,JACKSON,30.95268333,-85.41743333,WATSON AIRPORT,AIRPORT,"WATSON, DAVID 2178 HIGHWAY 2  GRACEVILLE FL 32440",Active,,,,,,,,,,,,,,,,,,
143,GRACEVILLE,JACKSON,30.98184999,-85.49243333,KIRKLAND AIRPORT,AIRPORT,"5673 HWY  GRACEVILLE, FL 32440",Active,,,,,,,,,,,,,,,,,,
144,MARIANNA,JACKSON,30.69463888,-85.31076111,LANDS FIELD,AIRPORT,"LAND, LINDA 3457 MYSTERY SPRINGS ROAD  MARIANNA FL 32448",Active,,,,,,,,,,,,,,,,,,
145,MARIANNA,JACKSON,30.83779388,-85.18188111,MARIANNA MUNICIPAL AIRPORT,AIRPORT,3689 INDUSTRIAL PARK DRIVE  MARIANNA FL 32446,Active,,,,,,,,,,,,,,,,,,
146,BASCOM,JACKSON,30.98111111,-85.06833333,NORTH AMERICAN FARMS AIRPORT,AIRPORT,"HALL, JOSEPH 5559 CONCORD ROAD  BASCOM FL 32423",Active,,,,,,,,,,,,,,,,,,
147,GREENVILLE,JEFFERSON,30.61659166,-83.65238055,FINLAYSON FARMS AIRPORT,AIRPORT,"FINLAYSON, JOHN 25 FINCREST CIRCLE  GREENVILLE FL 32331",Active,,,,,,,,,,,,,,,,,,
148,GREENVILLE,JEFFERSON,30.58684722,-83.70601944,JEFFERSON LANDINGS AIRPORT,AIRPORT,13 EAST 10TH WAY  GREENVILLE FL 32331,Active,,,,,,,,,,,,,,,,,,
149,TALLAHASSEE,JEFFERSON,30.4775,-84.03472222,CHARLOTTES FIELD,AIRPORT,"BRAGDON, JIM 424 GREATER ELIZABETH  MONTICELLO FL 32344",Active,,,,,,,,,,,,,,,,,,
150, ,LAFAYETTE,30.19638888,-83.30638888,FORT ATKINSON PLANTATION AIRPARK,AIRPORT,ROB HARPER IV 4485 NORTH CR 53 MAYO FL 32066,Active,,,,,,,,,,,,,,,,,,
151,MAYO,LAFAYETTE,29.91461111,-83.26759722,R. O. RANCH AIRPORT,AIRPORT,SUWANNEE RIVER WATER MANAGEMENT DISTRICT 9225 COUNTY ROAD 49  LIVE OAK FL 32060,ACTIVE,,,,,,,,,,,,,,,,,,
152, ,LAKE,28.50861111,-81.80027777,KINGS FIELD,AIRPORT,"KING, JACK 11320 MONTE VISTA ROAD  CLERMONT FL 34711",Active,,,,,,,,,,,,,,,,,,
153, ,LAKE,28.627775,-81.80285555,FLORIDA FLYING GATORS ULTRALIGHT PARK,AIRPORT,"GRUENER, JOHN PO BOX 38  CASSELBERRY FL 32718",Active,,,,,,,,,,,,,,,,,,
154, ,LAKE,28.64166666,-81.885,GRASS ROOTS AIRPARK,AIRPORT,"GAY, DAVID 20201 WHISTLING WIRE LANE GROVELAND FL 34736",Active,,,,,,,,,,,,,,,,,,
155, ,LAKE,28.79536111,-81.72119444,TAVARES SEAPLANE BASE,AIRPORT,150 EAST RUBY STREET  TAVARES FL 32778,Active,,,,,,,,,,,,,,,,,,
156,FRUITLAND PARK,LAKE,28.87609722,-81.88896944,FLYING H AIRPORT,AIRPORT,"HUMPHREY, DEAN 35800 GRAYS AIRPORT ROAD  FRUITLAND PARK FL 34731",Active,,,,,,,,,,,,,,,,,,
157,FRUITLAND PARK,LAKE,28.87804166,-81.94091666,FLYING PALOMINO RANCH AIRPORT,AIRPORT,"ISAACS, STEVE 36422 MICRO RACETRACK ROAD  FRUITLAND PARK FL 34731",Active,,,,,,,,,,,,,,,,,,
158,GROVELAND,LAKE,28.53361111,-81.84702222,SHEETS AIRPORT,AIRPORT,"MENEFEE, FRANK 2444 BAR HARBOR BAY  MOUNT DORA FL 32757",Active,,,,,,,,,,,,,,,,,,
159,GROVELAND,LAKE,28.66777222,-81.91813611,TEX MERRITT PRIVATE AIRSTRIP,AIRPORT,"MERRITT, TEX P.O. BOX 86  OKAHUMPA FL 34762",Active,,,,,,,,,,,,,,,,,,
160,GROVELAND,LAKE,28.52666666,-81.8748,OSBORN AIRFIELD,AIRPORT,"OSBORN, DARLENE 12155 MATTIODA ROAD  GROVELAND FL 34736",Active,,,,,,,,,,,,,,,,,,
161,PAISLEY,LAKE,29.03026111,-81.44701111,DEEP WOODS RANCH AIRPORT,AIRPORT,"SCHMALE, JOHN K 46800 DEEP WOODS ROAD  PAISLEY FL 32767",Active,,,,,,,,,,,,,,,,,,
162,LEESBURG,LAKE,28.79748888,-81.93591388,FLYING BARON ESTATES AIRPORT,AIRPORT,"STRIMENOS, PETER 1048 STRIMENOS LANE  LEESBURG FL 34748",Active,,,,,,,,,,,,,,,,,,
163,LEESBURG,LAKE,28.82279444,-81.80918888,LEESBURG INTERNATIONAL AIRPORT,AIRPORT,8807 AIRPORT BOULEVARD  LEESBURG FL 34788,Active,,,,,,,,,,,,,,,,,,
164,EUSTIS,LAKE,28.94859722,-81.41312222,BRADSHAW FARMS AIRPORT,AIRPORT,"BRADSHAW, J 32502 PINE ROAD  EUSTIS FL 32736",Active,,,,,,,,,,,,,,,,,,
165,EUSTIS,LAKE,28.90498888,-81.43312222,BRITT BROWN & PORTER RANCH AIRPORT,AIRPORT,"ROSE, MELANIE 31614 BOTTANY WOOD DRIVE  EUSTIS FL 32736",Active,,,,,,,,,,,,,,,,,,
166,BOKEELIA,LEE,26.67729444,-82.13648055,EAGLES LANDING AIRPORT,AIRPORT,"DEAN WISH, LLC PO BOX 1839 PLANT CITY FL 33564",Active,,,,,,,,,,,,,,,,,,
167,BOKEELIA,LEE,26.65618333,-82.12120277,PINE ISLAND AIRPORT,AIRPORT,"REED, E 13350 MORNINGSTAR LANE  BOKEELIA FL 33922",Active,,,,,,,,,,,,,,,,,,
168,SAINT JAMES CITY,LEE,26.582575,-82.098425,WOODSTOCK AIRPORT,AIRPORT,"VALCARCEL, FRANK 4370 WOODSTOCK ROAD  ST. JAMES CITY FL 33956",Active,,,,,,,,,,,,,,,,,,
169,ESTERO,LEE,26.44535555,-81.60730277,CORKSCREW TRACE AIRPARK,AIRPORT,BARBARA WHIDDEN 21230 CORKSCREW ROAD ESTERO FL 33928,Active,,,,,,,,,,,,,,,,,,
170,NORTH FORT MYERS,LEE,26.73284722,-81.89730833,PINE SHADOWS AIRPARK,AIRPORT,"ELLIS, JERRY 18500 BASELEG AVENUE  FORT MYERS FL 33917",Active,,,,,,,,,,,,,,,,,,
171,FORT MYERS,LEE,26.66284999,-81.77063888,STRAYHORN RANCH AIRPORT,AIRPORT,ALIWANNA LANE  FT. MYERS FL 33905,Active,,,,,,,,,,,,,,,,,,
172,FORT MYERS,LEE,26.64340499,-81.71035972,BUCKINGHAM FIELD,AIRPORT,15191 HOMESTEAD ROAD  LEHIGH ACRES FL 33971,Active,,,,,,,,,,,,,,,,,,
173,FORT MYERS,LEE,26.53616666,-81.75516666,SOUTHWEST FLORIDA INTERNATIONAL AIRPORT,AIRPORT,11000 TERMINAL ACCESS ROAD  FORT MYERS FL 33913,Active,,,,,,,,,,,,,,,,,,
174,FORT MYERS,LEE,26.58665833,-81.86328055,PAGE FIELD,AIRPORT,5200 CAPT. CHANNING PAGE DRIVE  FORT MYERS FL 33907-1526,Active,,,,,,,,,,,,,,,,,,
175,CAPTIVA,LEE,26.60340833,-82.22009444,SALTY APPROACH AIRSTRIP,AIRPORT,P. O. BOX 3031   NORTH CAPTIVA FL 33945,Active,,,,,,,,,,,,,,,,,,
176,TALLAHASSEE,LEON,30.47916666,-84.075,ANGELS FIELD STOLPORT,AIRPORT,"MAJORS, LEE 11215 TURKEY ROOST ROAD  TALLAHASSEE FL 32317",Active,,,,,,,,,,,,,,,,,,
177,TALLAHASSEE,LEON,30.59047777,-84.03044722,INGALLS FIELD AIRPORT,AIRPORT,"YOWN, KENT 11418 CHEROKEE PLANTATION COURT  TALLAHASSEE FL 32312",Active,,,,,,,,,,,,,,,,,,
178,TALLAHASSEE,LEON,30.54730833,-84.37384722,TALLAHASSEE COMMERCIAL AIRPORT,AIRPORT,6601 NORTH MONROE STREET  TALLAHASSEE FL 32303,Active,,,,,,,,,,,,,,,,,,
179,TALLAHASSEE,LEON,30.39652777,-84.35033333,TALLAHASSEE REGIONAL AIRPORT,AIRPORT,3300 CAPITAL CIRCLE SOUTHWEST SUITE 1 TALLAHASSEE FL 32310,Active,,,,,,,,,,,,,,,,,,
180, ,LEON,30.51583333,-84.08330555,BLACK CREEK PASS AIRPORT,AIRPORT,11903 WADESBORO ROAD  TALLAHASSEE FL 32317,Active,,,,,,,,,,,,,,,,,,
181,CEDAR KEY,LEVY,29.22848611,-82.94306944,THE CEDARS AIRFIELD,AIRPORT,MARVIN FRANKS 6831 SW 105TH AV  CEDAR KEY FL 32625,Active,,,,,,,,,,,,,,,,,,
182,CEDAR KEY,LEVY,29.13424444,-83.05047222,GEORGE T LEWIS AIRPORT,AIRPORT,14703 SOUTHWEST AIRPORT ROAD  CEDAR KEY FL 32625,Active,,,,,,,,,,,,,,,,,,
183,MORRISTON,LEVY,29.27722222,-82.50056944,REDTAIL AIRFIELD,AIRPORT,"MUNOZ, JESSE 3951 SE 160TH AVENUE  MORRISTON FL 32268",Active,,,,,,,,,,,,,,,,,,
184,MORRISTON,LEVY,29.23779166,-82.54561111,WINGS FIELD,AIRPORT,"OBERT, ROBERT 8053 SE 140TH LANE  INGLIS FL 34449",Active,,,,,,,,,,,,,,,,,,
185,CHIEFLAND,LEVY,29.55583333,-82.86916666,NEAL FIELD,AIRPORT,"NEAL, PAULETTE P.O. BOX 716  TRENTON FL 32693",Active,,,,,,,,,,,,,,,,,,
186,CHIEFLAND,LEVY,29.39548055,-82.86977777,CHIEFLAND SKY RANCH AIRPORT,AIRPORT,"PITTS, FRANK 4771 NW 60TH AVENUE  CHIEFLAND FL 32626",Active,,,,,,,,,,,,,,,,,,
187,TRENTON,LEVY,29.56588888,-82.86905555,WINDY ACRES AIRPORT,AIRPORT,"FULMER, RUSSELL 5650 NW165TH ST.  TRENTON FL 32693",Active,,,,,,,,,,,,,,,,,,
188,TRENTON,LEVY,29.58745833,-82.87123333,AMES FIELD,AIRPORT,"HAYNES, BILL 9520 SOUTHWEST 126TH STREET  ARCHER FL 32618",Active,,,,,,,,,,,,,,,,,,
189, ,LIBERTY,30.35058888,-84.74158611,BLUE CREEK AIRPORT,AIRPORT,"LORD, JEAN 9169 NEW BERLIN ROAD  JACKSONVILLE FL 32226",Active,,,,,,,,,,,,,,,,,,
190, ,MADISON,30.48333333,-83.25833333,BLUE SPRINGS AIRPORT,AIRPORT,ROUTE 1  LEE FL 32059,Active,,,,,,,,,,,,,,,,,,
191, ,MADISON,30.33638888,-83.78361111,MOUNT OLIVE FARM AIRPORT,AIRPORT,16131 HWY 19  LAMONT FL 32336,Active,,,,,,,,,,,,,,,,,,
192,PINETTA,MADISON,30.62284722,-83.28565277,ESTHERBROOK AERODROME,AIRPORT,"DECKER, SHELLY 357 NE WILLOWRUN WAY  PINETTA FL 32350",Active,,,,,,,,,,,,,,,,,,
193,LEE,MADISON,30.44281944,-83.31162499,MADISON COUNTY AIRPORT,AIRPORT,"THIGPEN, LONNIE P.O. BOX 237  MADISON FL 32341",Active,,,,,,,,,,,,,,,,,,
194,PALMETTO,MANATEE,27.54420277,-82.53009722,THOMSON AIRFIELD,AIRPORT,"CIPRIANI, FRANK 3135 37TH STREET EAST  PALMETTO FL 34221",Active,,,,,,,,,,,,,,,,,,
195,PALMETTO,MANATEE,27.64253277,-82.52092861,AIRPORT MANATEE,AIRPORT,14108 US HIGHWAY 41 NORTH  PALMETTO FL 34221,Active,,,,,,,,,,,,,,,,,,
196,MYAKKA CITY,MANATEE,27.45527777,-82.10722222,MYAKKA HEAD AIRPORT,AIRPORT,"TAYLOR, J / PATTY TOFT 1350 DUETTE ROAD  MYAKKA FL 34251",Active,,,,,,,,,,,,,,,,,,
197,DUNNELLON,MARION,28.99025555,-82.33037222,DRAKE RANCH STOLPORT,AIRPORT,"DRAKE, GEORGE AND ANN LOUISE 1120 AZALEA LANE  WINTER PARK FL 32789",Active,,,,,,,,,,,,,,,,,,
198,DUNNELLON,MARION,29.06178055,-82.37658333,MARION COUNTY AIRPORT,AIRPORT,15070 SW 107TH ST DUNNELLON FL 34432,Active,,,,,,,,,,,,,,,,,,
199,CITRA,MARION,29.38555555,-82.1425,THOMPSONS GOINBROKE AERO RANCH AIRPORT,AIRPORT,"THOMPSON, LANNY 94  NW 165TH STREET  CITRA FL 32113",Active,,,,,,,,,,,,,,,,,,
200,CITRA,MARION,29.36136111,-82.14981666,WINGS-N-WHEELS AIRFIELD,AIRPORT,"NELSON, EDWARD 2102 NE 145TH AVENUE ROAD  SILVER SPRINGS FL 34488",Active,,,,,,,,,,,,,,,,,,
201,CITRA,MARION,29.37524999,-82.05814722,PANIOLA SKY RANCH AIRPORT,AIRPORT,"DIERSCHKE, WOLF 6301 E. HIGHWAY 316 CITRA FL 32113",Active,,,,,,,,,,,,,,,,,,
202,MORRISTON,MARION,29.24083333,-82.35416666,CROSSWIND FARM AIRPORT,AIRPORT,"REISS, JOHN 14024 NW HIGHWAY 464B  MORRISTON FL 32668",Active,,,,,,,,,,,,,,,,,,
203,REDDICK,MARION,29.34080555,-82.26370833,RELUCTANT GREMLIN AIRPORT,AIRPORT,RICHARD HELMS 8549 NW 130TH ST.  REDDICK FL 32686,Active,,,,,,,,,,,,,,,,,,
204,REDDICK,MARION,29.33469444,-82.16676111,LEE FARMS AIRPORT,AIRPORT,"LEE, C. K. 2323 W. HIGHWAY 329 CITRA FL 32113",Active,,,,,,,,,,,,,,,,,,
205,OCALA,MARION,29.28025277,-82.12481388,JUMBOLAIR-GREYSTONE AIRPORT,AIRPORT,1201 NE 77TH STREET    OCALA FL 34479,Active,,,,,,,,,,,,,,,,,,
206,OCALA,MARION,29.08414722,-82.03230833,LEEWARD AIR RANCH AIRPORT,AIRPORT,P O BOX 1476  OCALA FL 34478,Active,,,,,,,,,,,,,,,,,,
207,OCALA,MARION,29.07303611,-81.99953055,BACK ACHERS AIRPORT,AIRPORT,"FAMBROUGH, THOMAS 9215 SE 110TH ST RD BELLEVIEW FL 34420",Active,,,,,,,,,,,,,,,,,,
208,OCALA,MARION,29.13055555,-82.11916666,FLYING DUTCHMAN RANCH AIRPORT,AIRPORT,P.O. BOX 3068  OCALA FL 34478,Active,,,,,,,,,,,,,,,,,,
209,OCALA,MARION,29.02608888,-82.21231388,MCGINLEY AIRPORT,AIRPORT,"MCGINLEY, RICHARD 5700 SW HIGHWAY 484  OCALA FL 34473",Active,,,,,,,,,,,,,,,,,,
210,OCALA,MARION,29.28913888,-82.32232222,IDLE WILD AIRPORT,AIRPORT,"HAMBLETON, SARAH J 9420 NW 125TH AVENUE  OCALA FL 34482",Active,,,,,,,,,,,,,,,,,,
211,OCALA,MARION,29.09608888,-82.17898055,SHADY INTERNATIONAL AIRPORT,AIRPORT,"ZURAWSKI, JOE 3504 SW 85TH ST  OCALA FL 34476",Active,,,,,,,,,,,,,,,,,,
212,OCALA,MARION,29.17261111,-82.22416666,OCALA INTERNATIONAL-JIM TAYLOR FIELD,AIRPORT,750 SOUTHWEST 60TH AVENUE  OCALA FL 34474-1270,Active,,,,,,,,,,,,,,,,,,
213,OCKLAWAHA,MARION,29.12358888,-81.88702777,WOODS AND LAKE AIRPARK,AIRPORT,DWAINE BERRY 6504 SE 159TH COURT  OCKLAWAHA FL 32179,Active,,,,,,,,,,,,,,,,,,
214, ,MARION,28.98333333,-81.95,SKIPPERS AIRPORT,AIRPORT,"SKIPPER, SCOTT 17025 SE 19TH COURT  SUMMERFIELD FL 34491",active,,,,,,,,,,,,,,,,,,
215, ,MARION,29.01886944,-82.11369999,MONROE AIRPARK,AIRPORT,"MONROE, DENNIS 1770 SE 140TH STREET  SUMMERFIELD FL 34491",Active,,,,,,,,,,,,,,,,,,
216, ,MARION,28.97914999,-82.03314166,DALLAS AIRPORT,AIRPORT,"CANGELOSI ,JOHN M. 7280 SE HWY 42 SUMMERFIELD FL 34491",Active,,,,,,,,,,,,,,,,,,
217,BELLEVIEW,MARION,29.02636944,-81.98786388,JOHARY AIRPORT,AIRPORT,"JOHARY, C 13250 SE 100TH AVE BELLEVIEW FL 34420",Active,,,,,,,,,,,,,,,,,,
218,WEIRSDALE,MARION,28.96192777,-81.89146944,LOVE FIELD,AIRPORT,"LOVE, JOHN 10835 SE SUNSET HARBOR ROAD  SUMMERFIELD FL 34491",Active,,,,,,,,,,,,,,,,,,
219,WEIRSDALE,MARION,28.97553888,-81.91869444,HOBBY HILL AIRPORT,AIRPORT,"WIMBERLY, GARY P.O. BOX 33  EAST LAKE WEIR FL 32133",Active,,,,,,,,,,,,,,,,,,
220,SUMMERFIELD,MARION,29.00109166,-82.10064444,NORTON AIRPORT,AIRPORT,"NORTON, HUGH 15010 SE 28TH COURT  SUMMERFIELD FL 34491",Active,,,,,,,,,,,,,,,,,,
221,PALM CITY,MARTIN,27.10282777,-80.29338055,TROPICAL PLANTATION AIRPORT,AIRPORT,"MADONIA, STEVE 3655 SW 96 STREET STUART FL 34990",Active,,,,,,,,,,,,,,,,,,
222,PALM CITY,MARTIN,27.14282777,-80.33782777,NAKED LADY RANCH AIRPORT,AIRPORT,"6100 SW. MOORE ST.,  PALM CITY FL 34990",Active,,,,,,,,,,,,,,,,,,
223,JUPITER,MARTIN,26.9795,-80.21865555,TAILWINDS AIRPARK,AIRPORT,TAILWINDS HOMEOWNERS ASSOCIATION 2400 SE DOWNWINDS RD JUPITER FL 33478,Active,,,,,,,,,,,,,,,,,,
224,INDIANTOWN,MARTIN,27.09333333,-80.61222222,HORSESHOE ACRES AIRPARK,AIRPORT,26110 SW 86TH STREET  INDIANTOWN FL 34956,Active,,,,,,,,,,,,,,,,,,
225,INDIANTOWN,MARTIN,27.11338333,-80.63338888,BRADY RANCH AIRPORT,AIRPORT,"BRADY, FRANK P.O. BOX 536  OKEECHOBEE FL 34973",Active,,,,,,,,,,,,,,,,,,
226,INDIANTOWN,MARTIN,27.03644166,-80.44005,INDIANTOWN AIRPORT,AIRPORT,20654 SOUTHWEST CITRUS BOULEVARD  INDIANTOWN FL 34956,Active,,,,,,,,,,,,,,,,,,
227,MIAMI,MIAMI-DADE,25.56961111,-80.39877777,BURRS STRIP,AIRPORT,"BURR, CHARLES 21100 SW 127TH AVENUE  MIAMI FL 33177",Active,,,,,,,,,,,,,,,,,,
228,MIAMI,MIAMI-DADE,25.61965833,-80.49231666,LINDBERGHS LANDING AIRSTRIP,AIRPORT,"TORRES, RAMON 17705 SW 158TH STREET  MIAMI FL 33187-1208",Active,,,,,,,,,,,,,,,,,,
229,MIAMI,MIAMI-DADE,25.55966666,-80.51473611,RICHARDS FIELD ,AIRPORT,22001 SW 202 AVE  MIAMI FL 33170,Active,,,,,,,,,,,,,,,,,,
230,MIAMI,MIAMI-DADE,25.55217499,-80.55581944,MJD STOLPORT,AIRPORT,"DUREIKO, MARTIN 22361 SW 232ND STREET  MIAMI FL 33170",Active,,,,,,,,,,,,,,,,,,
231,MIAMI,MIAMI-DADE,25.79536111,-80.29011111,MIAMI INTERNATIONAL AIRPORT,AIRPORT,4200 NORTHWEST 21ST STREET  MIAMI FL 33159,Active,,,,,,,,,,,,,,,,,,
232,MIAMI,MIAMI-DADE,25.64788888,-80.43277777,KENDALL-TAMIAMI EXECUTIVE AIRPORT,AIRPORT,12800 SOUTH WEST 145 AVENUE  MIAMI FL 33186,Active,,,,,,,,,,,,,,,,,,
233,HOMESTEAD,MIAMI-DADE,25.48844166,-80.38366666,HOMESTEAD ARB,AIRPORT,COMMAND POST 305-224-7023 USAF RESERVE HOMESTEAD FL 33030,Active,,,,,,,,,,,,,,,,,,
234,HOMESTEAD,MIAMI-DADE,25.54678333,-80.46538055,MACS FIELD,AIRPORT,"MUNZ, CHARLES 23600 SW 162 AVENUE  HOMESTEAD FL 33031",Active,,,,,,,,,,,,,,,,,,
235,HOMESTEAD,MIAMI-DADE,25.49871944,-80.554225,HOMESTEAD GENERAL AVIATION AIRPORT,AIRPORT,28700 SOUTH WEST 217 AVENUE  HOMESTEAD FL 33030,Active,,,,,,,,,,,,,,,,,,
236, ,MIAMI-DADE,25.52777777,-80.5,THE WRIGHT PLACE STOLPORT,AIRPORT,"WRIGHT, GEORGE P.O. BOX 1751  HOMESTEAD FL 33090",Active,,,,,,,,,,,,,,,,,,
237, ,MIAMI-DADE,25.77833333,-80.17027777,MIAMI SEAPLANE BASE,AIRPORT,1000 MACAURTHUR CAUSEWAY  MIAMI FL 33132,Active,,,,,,,,,,,,,,,,,,
238,TAVERNIER,MONROE,25.00493333,-80.53290555,TAVERNAERO AIRPARK,AIRPORT,P.O. BOX 171  TAVERNIER FL 33070,Active,,,,,,,,,,,,,,,,,,
239,SUMMERLAND KEY,MONROE,24.65916111,-81.44566666,SUMMERLAND KEY COVE AIRPORT,AIRPORT,AIRPORT DRIVE SOUTH & NORTH P.O. BOX  420290  SUMMERLAND KEY FL 33042,Active,,,,,,,,,,,,,,,,,,
240,SUMMERLAND KEY,MONROE,24.64883611,-81.57759444,SUGAR LOAF AIRPORT,AIRPORT,"GOOD,  JOHN 17001 OVERSEAS HIGHWAY SUGARLOAF KEY FL 33042",Active,,,,,,,,,,,,,,,,,,
241,KEY WEST,MONROE,24.5757,-81.68897777,KEY WEST NAS / BOCA CHICA FIELD,AIRPORT,BASE OPERATIONS 305-293-2770 U.S. NAVY KEY WEST FL ,Active,,,,,,,,,,,,,,,,,,
242,KEY WEST,MONROE,24.55612222,-81.75954444,KEY WEST INTERNATIONAL AIRPORT,AIRPORT,3491 SOUTH ROOSEVELT BOULEVARD  KEY WEST FL 33040,Active,,,,,,,,,,,,,,,,,,
243,KEY LARGO,MONROE,25.32539166,-80.274775,OCEAN REEF CLUB AIRPORT,AIRPORT,JANIS SMYLY 35 OCEAN REEF DRIVE  KEY LARGO FL 33037,Active,,,,,,,,,,,,,,,,,,
244,YULEE,NASSAU,30.60058333,-81.57083333,FLYING A RANCH AIRPORT,AIRPORT,"ARNETT, FREDDY 85454 FLYING A RANCH DRIVE  YULEE FL 32097",Active,,,,,,,,,,,,,,,,,,
245,YULEE,NASSAU,30.62686111,-81.53476388,NASSAU PRIVATE FIELD,AIRPORT,"HANCOCK, STEPHEN 96541 CESSNA DRIVE  YULEE FL 32097",Active,,,,,,,,,,,,,,,,,,
246,BAKER,OKALOOSA,30.81851944,-86.68801111,DOTSON FARMS AIRPORT,AIRPORT,"DOTSON, GLENN 1250 HIGHWAY C4A  BAKER FL 32531",Active,,,,,,,,,,,,,,,,,,
247,BAKER,OKALOOSA,30.85388888,-86.66722222,SKY PARK ESTATES AIRPORT,AIRPORT,"WILLIAMS, REDDOCH 1493 SKY RANCH LANE BAKER FL 32531",Active,,,,,,,,,,,,,,,,,,
248,CRESTVIEW,OKALOOSA,30.80018611,-86.43550555,FIVE OAKS ESTATE,AIRPORT,"SCOTT, RONALD 4274 POVERTY CREEK ROAD  CRESTVIEW FL 32539",Active,,,,,,,,,,,,,,,,,,
249,CRESTVIEW,OKALOOSA,30.78185277,-86.46717222,TRIPLE B AIRPARK STOLPORT,AIRPORT,5706 MOUNT OLIVE RD  CRESTVIEW FL 32539,Active,,,,,,,,,,,,,,,,,,
250,CRESTVIEW,OKALOOSA,30.77883611,-86.52211388,BOB SIKES AIRPORT,AIRPORT,5545 JOHN GIVENS ROAD  CRESTVIEW FL 32536,Active,,,,,,,,,,,,,,,,,,
251,EGLIN AFB,OKALOOSA,30.63185833,-86.74717777,EGLIN TEST SITE B6,AIRPORT,COMMAND POST 850-883-4020 U.S. AIR FORCE VALPARAISO FL ,Active,,,,,,,,,,,,,,,,,,
252,EGLIN AFB,OKALOOSA,30.65185833,-86.52300555,EGLIN AF AUX NR 3 DUKE,AIRPORT,COMMAND POST 850-884-8100 U.S. AIR FORCE VALPARAISO FL ,Active,,,,,,,,,,,,,,,,,,
253,EGLIN AFB,OKALOOSA,30.48333333,-86.52533333,NORTHWEST FLORIDA REGIONAL AIRPORT / EGLIN AFB,AIRPORT,1701 HWY 85 NORTH  EGLIN AIR FORCE BASE FL 32542-1413,Active,,,,,,,,,,,,,,,,,,
254,HURLBURT FIELD,OKALOOSA,30.42881111,-86.68884444,HURLBURT FIELD,AIRPORT,COMMAND POST 850-884-8100 U.S. AIR FORCE MARY ESTHER FL ,Active,,,,,,,,,,,,,,,,,,
255,HOLT,OKALOOSA,30.68546944,-86.74717777,YELLOW RIVER VALLEY AIRSTRIP,AIRPORT,THOMAS H JULIAN P.O. BOX 85  HOLT FL 32564,Active,,,,,,,,,,,,,,,,,,
256,NICEVILLE,OKALOOSA,30.51964166,-86.43828055,RUCKEL AIRPORT,AIRPORT,"RUCKEL PROPERTIES, INC. 1003C JOHN SIMS PARKWAY EAST NICEVILLE FL 32578",Active,,,,,,,,,,,,,,,,,,
257,OKEECHOBEE,OKEECHOBEE,27.54198055,-80.83311666,INDIAN HAMMOCK AIRPORT,AIRPORT,"MARILYN KLUEGEL 32801 US HIGHWAY 441 NORTH,  #268  OKEECHOBEE FL 34972",Active,,,,,,,,,,,,,,,,,,
258,OKEECHOBEE,OKEECHOBEE,27.59777777,-80.84611111,RUSSAKIS RANCH 441 AIRPORT,AIRPORT,8801 INDRIO ROAD  FT. PIERCE FL 34951,ACTIVE,,,,,,,,,,,,,,,,,,
259,OKEECHOBEE,OKEECHOBEE,27.15555555,-80.69166666,FLYING COW AIR RANCH,AIRPORT,"WESTGATE & BEYOND, INC. 10151 SE 126TH BLVD  OKEECHOBEE FL 34974",Active,,,,,,,,,,,,,,,,,,
260,OKEECHOBEE,OKEECHOBEE,27.36115277,-80.76089166,PAXTON AIRPORT,AIRPORT,"PAXTON, JOHN 6333 NE 120TH STREET  OKEECHOBEE FL 34972",Active,,,,,,,,,,,,,,,,,,
261,OKEECHOBEE,OKEECHOBEE,27.333375,-80.73616944,CITRUS HEDGING RANCH AIRPORT,AIRPORT,9000 NE 120TH STREET  OKEECHOBEE FL 34972,Active,,,,,,,,,,,,,,,,,,
262,OKEECHOBEE,OKEECHOBEE,27.32531944,-81.02867499,RIVER ACRES AIRPORT,AIRPORT,"BUSSELL, JAN 19840 NW 94TH DRIVE  OKEECHOBEE FL 34972",Active,,,,,,,,,,,,,,,,,,
263,OKEECHOBEE,OKEECHOBEE,27.23088055,-80.96923055,RIVER OAK ACRES AIRPORT,AIRPORT,13525 SW 144TH PKWY   OKEECHOBEE FL 34974,Active,,,,,,,,,,,,,,,,,,
264,OKEECHOBEE,OKEECHOBEE,27.36309722,-80.77283611,SUNNILAND RANCH AIRPORT,AIRPORT,"MALONE, WILLIAM 12245 NE 56TH STREET  OKEECHOBEE FL 34972",Active,,,,,,,,,,,,,,,,,,
265,OKEECHOBEE,OKEECHOBEE,27.26611111,-80.85015555,OKEECHOBEE COUNTY AIRPORT,AIRPORT,2800 NORTH WEST 20TH TRAIL  OKEECHOBEE FL 34972,Active,,,,,,,,,,,,,,,,,,
266, ,OKEECHOBEE,27.45692222,-80.99718611,BASS FAMILY INC. AIRPORT,AIRPORT,COUNTY ROAD 724 & 700A  OKEECHOBEE FL 34972,Active,,,,,,,,,,,,,,,,,,
267, ,OKEECHOBEE,27.24111111,-80.74111111,RANCH-AERO AIRPORT,AIRPORT,"CUNNINGHAM, FRANK 810 SE 80TH AVENUE  OKEECHOBEE FL 34974",Active,,,,,,,,,,,,,,,,,,
268, ,OKEECHOBEE,27.29583333,-80.70416666,GOODBREAD RANCH AIRPORT,AIRPORT,"GOODBREAD, BRADLEY 12575 HWY 70 E  OKEECHOBEE FL 34972",Active,,,,,,,,,,,,,,,,,,
269, ,OKEECHOBEE,27.58027777,-80.81527777,LAKE MONTAZA AIRPORT,AIRPORT,1494 NE 342ND TRAIL  OKEECHOBEE FL 34972,Active,,,,,,,,,,,,,,,,,,
270, ,OKEECHOBEE,27.23421388,-80.90367222,SUNSET STRIP AIRPARK,AIRPORT,DEWEY DANIEL 7589 SW 13TH ST OKEECHOBEE FL 34973,Active,,,,,,,,,,,,,,,,,,
271,ORLANDO,ORANGE,28.58944444,-81.14423055,RYBOLT RANCH AIRPORT,AIRPORT,"LAMAR, MARY P.O. BOX 3350  WINTER PARK FL 32790",Active,,,,,,,,,,,,,,,,,,
272,ORLANDO,ORANGE,28.61888888,-81.50868333,CARTER AIRPORT,AIRPORT,"CARTER, BYRON P.O. BOX 2635  WINTER PARK FL 32790",Active,,,,,,,,,,,,,,,,,,
273,ORLANDO,ORANGE,28.42888888,-81.31602777,ORLANDO INTERNATIONAL AIRPORT,AIRPORT,ONE JEFF FUQUA BLVD  ORLANDO FL 32827,Active,,,,,,,,,,,,,,,,,,
274,ORLANDO,ORANGE,28.54547222,-81.33294444,EXECUTIVE AIRPORT,AIRPORT,365 RICKENBACKER DRIVE  ORLANDO FL 32803,Active,,,,,,,,,,,,,,,,,,
275,MOUNT DORA,ORANGE,28.76027222,-81.60590555,TANGERINE AIRPORT,AIRPORT,"KIMBALL, JIM P.O. BOX 849  ZELLWOOD FL 32798",Active,,,,,,,,,,,,,,,,,,
276,MOUNT DORA,ORANGE,28.72527777,-81.65083333,ORLANDO NORTH AIRPARK,AIRPORT,"LOOMIS, BOB 2849 LUST ROAD  APOPKA FL 32703",Active,,,,,,,,,,,,,,,,,,
277,MOUNT DORA,ORANGE,28.73360555,-81.63313055,BOB WHITE FIELD,AIRPORT,7011 WEST JONES AVENUE  ZELLWOOD FL 32798,Active,,,,,,,,,,,,,,,,,,
278, ,ORANGE,28.39611944,-81.56590555,LAKE BUENA VISTA STOLPORT,AIRPORT,"MOUSSEAU, JEFFEREY P.O. BOX 10,000; ATTN: LEGAL DEPARTMENT  LAKE BUENA VISTA FL 32830",Active,,,,,,,,,,,,,,,,,,
279,KENANSVILLE,OSCEOLA,27.77863888,-81.09978888,BLANKET BAY AIRPORT,AIRPORT,"ADAMS, MIKE P.O. BOX 12909  FT. PIERCE FL 34979-2909",Active,,,,,,,,,,,,,,,,,,
280,KENANSVILLE,OSCEOLA,27.86277777,-80.95805555,ESCAPE RANCH AIRPORT,AIRPORT,RANDY HOOPER P.O. BOX 58  KENANSVILLE FL 34739,Active,,,,,,,,,,,,,,,,,,
281,SAINT CLOUD,OSCEOLA,28.04335277,-81.01923055,FOREVER FLORIDA AIRPORT,AIRPORT,"BROUSSARD, WILLIAM 4755 KENANSVILLE ROAD  ST. CLOUD FL 34773",Active,,,,,,,,,,,,,,,,,,
282,SAINT CLOUD,OSCEOLA,28.13723888,-81.26340277,GENTRY AIRPORT,AIRPORT,"SESSIONS, RAYMOND 2409 SW SISTER'S WELCOME RD SUITE 101 LAKE CITY FL 32025",Active,,,,,,,,,,,,,,,,,,
283,SAINT CLOUD,OSCEOLA,28.20862499,-81.11923055,LAKE X AIRPORT,AIRPORT,DAVE UNDERWOOD 7555 OLD MELBOURNE HWY  ST. CLOUD FL 34771,Active,,,,,,,,,,,,,,,,,,
284,KISSIMMEE,OSCEOLA,28.25862222,-81.38395833,STOUT INTERNATIONAL AIRPORT & SPB,AIRPORT,1575 PINE ISLAND RD  KISSIMMEE FL 34744,Active,,,,,,,,,,,,,,,,,,
285,KISSIMMEE,OSCEOLA,28.28980555,-81.43708333,KISSIMMEE GATEWAY AIRPORT,AIRPORT,301 NORTH  DYER BOULEVARD SUITE 101 KISSIMMEE FL 34744-4613,Active,,,,,,,,,,,,,,,,,,
286, ,OSCEOLA,27.69416666,-81.11333333,EL MAXIMO RANCH AIRPORT,AIRPORT,"WILSON, LATIMER T. P.O. BOX 3737  LAKE WALES FL 33859",Active,,,,,,,,,,,,,,,,,,
287,SOUTHWEST PALM BEACH CO,PALM BEACH,26.58784722,-80.63727777,DUDA AIRSTRIP ,AIRPORT,"CHAPMAN, TRACY P.O. BOX 620257  OVIEDO FL 32762-0257",Active,,,,,,,,,,,,,,,,,,
288,SOUTHWEST PALM BEACH CO,PALM BEACH,26.58083333,-80.75611111,OKEELANTA AIRPORT,AIRPORT,JOSE GONZALEZ 21250 US HIGHWAY 27 S SOUTH BAY FL 33493,Active,,,,,,,,,,,,,,,,,,
289, ,PALM BEACH,26.548125,-80.21476944,WILLIS GLIDERPORT AIRPARK,AIRPORT,"ROBERTSON, TERRY 10640 DENOEU ROAD  BOYNTON BEACH FL 33472",Active,,,,,,,,,,,,,,,,,,
290,LOXAHATCHEE,PALM BEACH,26.90839166,-80.32893611,WILLIAM P GWINN AIRPORT,AIRPORT,"HARRIS, TREVOR P.O. BOX 109610  WEST PALM BEACH FL 33410-9610",Active,,,,,,,,,,,,,,,,,,
291,LOXAHATCHEE,PALM BEACH,26.62256666,-80.305325,LOXAHATCHEE AIRPORT,AIRPORT,4153 160TH AVENUE SOUTH  WELLINGTON FL 33414,Active,,,,,,,,,,,,,,,,,,
292,DELRAY BEACH,PALM BEACH,26.46534999,-80.14976666,ANTIQUERS AERODROME,AIRPORT,"LUMLEY, WILLIAM 7320 SKYLINE DRIVE  DELRAY BEACH FL 33446",Active,,,,,,,,,,,,,,,,,,
293,WEST PALM BEACH,PALM BEACH,26.64645555,-80.29421388,WELLINGTON AERO CLUB AIRPORT,AIRPORT,3461B FAIRLANE FARMS RD.   WELLINGTON FL 33414,Active,,,,,,,,,,,,,,,,,,
294,WEST PALM BEACH,PALM BEACH,26.84537305,-80.22148111,NORTH PALM BEACH COUNTY GENERAL AVIATION AIRPORT,AIRPORT,11600 AVIATION BOULEVARD  WEST PALM BEACH FL 33412,Active,,,,,,,,,,,,,,,,,,
295,WEST PALM BEACH,PALM BEACH,26.68315833,-80.09558888,PALM BEACH INTERNATIONAL AIRPORT,AIRPORT,BUILDING 846 PBIA  WEST PALM BEACH FL 33406-1491,Active,,,,,,,,,,,,,,,,,,
296,DADE CITY,PASCO,28.45416666,-82.21555555,CUB HAVEN STOLPORT,AIRPORT,"SPRIGG, JAMES 38102 MERIDIAN AVENUE  DADE CITY FL 33525",Active,,,,,,,,,,,,,,,,,,
297,DADE CITY,PASCO,28.41305555,-82.22341666,DUSTY AIRPATCH,AIRPORT,"RHODE, H W 35731 BLANTON ROAD  DADE CITY FL 33523",Active,,,,,,,,,,,,,,,,,,
298, ,PASCO,28.45147222,-82.217,TWO JS FLYING RANCH AIRPORT,AIRPORT,"WERME, JAMES P.O. BOX 508  TRILBY FL 33593",Active,,,,,,,,,,,,,,,,,,
299, ,PASCO,28.175,-82.48777777,GERACI FIELD,AIRPORT,20005 COUNTY LINE ROAD  LUTZ FL 33558,Active,,,,,,,,,,,,,,,,,,
300, ,PASCO,28.4725,-82.25194444,FIELD OF DREAMS AIRPORT,AIRPORT,"MILLER, LARRY 21412 FIELD OF DREAMS LANE  DADE CITY FL 33523",Active,,,,,,,,,,,,,,,,,,
301,NEW PORT RICHEY,PASCO,28.28222222,-82.64583333,HIDDEN LAKE AIRPORT,AIRPORT,"UNGAR, ED 8901 AIRWAY BLVD  NEW PORT RICHEY FL 34654",Active,,,,,,,,,,,,,,,,,,
302, ,POLK,27.84444444,-81.43916666,DAVID WINES AIRSTRIP,AIRPORT,"HETTINGER, WILLIAM 2600 CEDARWOOD DRIVE  LAKE WALES FL 33898",Active,,,,,,,,,,,,,,,,,,
303, ,POLK,28.04388888,-81.85138888,EAGLES NEST LANDING,AIRPORT,"GROOVER, LARRY 1633 TAYLOR STREET  AUBURNDALE FL 33823",Active,,,,,,,,,,,,,,,,,,
304, ,POLK,28.14335,-81.64701944,GORE AIRPORT,AIRPORT,"GORE, DAVID P.O. BOX 519  DAVENPORT FL 33836",Active,,,,,,,,,,,,,,,,,,
305, ,POLK,27.78972222,-81.64972222,VILLA CHAR MAR AIRPORT,AIRPORT,1901 BUFFUM LAKE TRAIL  FT MEADE FL 33841,Active,,,,,,,,,,,,,,,,,,
306, ,POLK,27.75722222,-81.60055555,RIDGE LANDING AIRPORT,AIRPORT,"FAZZINI, JOHN 101 EAST STUART AVENUE  LAKE WALES FL 33853",Active,,,,,,,,,,,,,,,,,,
307, ,POLK,27.93961111,-81.43202777,BENT WILLIES AIRPORT,AIRPORT,9605 CAMP MACK ROAD  LAKE WALES FL 33898,Active,,,,,,,,,,,,,,,,,,
308, ,POLK,28.05861111,-81.81638888,MARKET WORLD AIRPORT,AIRPORT,"TO, VINCENT 1053 HIGHWAY 92 WEST  AUBURNDALE FL 33823",Active,,,,,,,,,,,,,,,,,,
309, ,POLK,28.15751666,-81.56813055,GATOR AIRPARK STOLPORT,AIRPORT,"ALBRITTON, ROBERT 4525 ALBRITTON ROAD  ST CLOUD FL 34772",Active,,,,,,,,,,,,,,,,,,
310, ,POLK,27.95379444,-81.60142222,CHALET SUZANNE AIR STRIP,AIRPORT,3800 CHALET SUZANNE DRIVE  LAKE WALES FL 33859-7763,Active,,,,,,,,,,,,,,,,,,
311, ,POLK,28.0575,-81.76280555,JACK BROWNS SEAPLANE BASE,AIRPORT,2704 U.S. HIGHWAY 92  WINTER HAVEN FL 33880,Active,,,,,,,,,,,,,,,,,,
312,LAKELAND,POLK,28.21167777,-81.99869166,GREEN SWAMP AERODROME,AIRPORT,"ARALDI, SUZANNE 11465 IRONHEAD TRAIL  LAKELAND FL 33809",Active,,,,,,,,,,,,,,,,,,
313,LAKELAND,POLK,28.28166666,-81.94111111,BURNTWOOD RANCH AIRPORT,AIRPORT,ALEJANDRO VILLANUEVA 6225 DEEN STILL ROAD  LAKELAND FL 33809,Active,,,,,,,,,,,,,,,,,,
314,LAKELAND,POLK,27.98891666,-82.01855555,LAKELAND LINDER REGIONAL AIRPORT,AIRPORT,3900 DON EMERSON DRRIVE SUITE 210 LAKELAND FL 33811,Active,,,,,,,,,,,,,,,,,,
315,FROSTPROOF,POLK,27.75030555,-81.55951944,LAKE CLINCH AIRPARK,AIRPORT,"AMATO, LOUIS 446 AIRPORT ROAD  FROSTPROOF FL 33843",Active,,,,,,,,,,,,,,,,,,
316,FROSTPROOF,POLK,27.65058611,-81.34951666,MACDILL AFB AUX FLD,AIRPORT,COMMAND POST 813-828-4361 U.S. AIR FORCE AVON PARK FL ,Active,,,,,,,,,,,,,,,,,,
317,POLK CITY,POLK,28.20640277,-81.82785555,FLANDERS FIELD,AIRPORT,"NEWBERRY, ROBERT P.O. BOX 2003  LAKELAND FL 33806",Active,,,,,,,,,,,,,,,,,,
318,POLK CITY,POLK,28.16695833,-81.80813333,"ORLAMPA, INC. AIRPORT",AIRPORT,1400 BROADWAY BLVD. SE  POLK CITY FL 33868,Active,,,,,,,,,,,,,,,,,,
319,HAINES CITY,POLK,28.01416666,-81.54055555,SOUTHERLY AIRPORT,AIRPORT,"DREWNIANY, FRANK 971 SAN PEDRO AVENUE  CORAL GABLES FL 33156",Active,,,,,,,,,,,,,,,,,,
320,CRESCENT CITY,PUTNAM,29.42707027,-81.60423833,EAGLES NEST AIRPORT & SPB,AIRPORT,521 GEORGETOWN SHORTCUT RD  CRESCENT CITY FL 32112,Active,,,,,,,,,,,,,,,,,,
321,CRESCENT CITY,PUTNAM,29.43491666,-81.65676388,MOUNT ROYAL AIRPORT,AIRPORT,JASON I. SHEFFIELD 111 INDIAN MOUND DRIVE CRESCENT CITY FL 32112,Active,,,,,,,,,,,,,,,,,,
322,CRESCENT CITY,PUTNAM,29.44123611,-81.58443055,JIM FINLAY FARM AIRPORT,AIRPORT,"ABBING, FRITS P.O. BOX 774  CRESCENT CITY FL 32112",Active,,,,,,,,,,,,,,,,,,
323,CRESCENT CITY,PUTNAM,29.47348611,-81.57095833,THUNDERBIRD AIRPARK,AIRPORT,"SAULS, IVESON P.O. BOX 27 118 CESSNA STREET LAKE COMO FL 32157",Active,,,,,,,,,,,,,,,,,,
324,CRESCENT CITY,PUTNAM,29.40483333,-81.49655555,CRESCENT LAKE FARMS AIRPORT,AIRPORT,"C/O MIDNIGHT FLORIDA LAND, LLC 350 CLIFTON ROAD  CRESCENT CITY  FL 32112",Active,,,,,,,,,,,,,,,,,,
325,CRESCENT CITY,PUTNAM,29.50230555,-81.57743055,POMONA LANDING AIRPORT,AIRPORT,"WARREN, ROBERT 113 POMONA LANDING RD.  POMONA PARK FL 32181",Active,,,,,,,,,,,,,,,,,,
326, ,PUTNAM,29.52060555,-81.66647222,LIB FIELD,AIRPORT,"BRENNER, DONALD 119 ASHLEY LANE  SATSUMA FL 32189-3101",Active,,,,,,,,,,,,,,,,,,
327, ,PUTNAM,29.56680555,-81.85013888,OAK RIDGE AIR PARK,AIRPORT,160 OAK RIDGE DRIVE  INTERLACHEN FL 32148,Active,,,,,,,,,,,,,,,,,,
328, ,PUTNAM,29.47926388,-82.05334722,MARJORIE KENNAN RAWLINGS AIRPORT,AIRPORT,"STRANG, CARL P.O. BOX 194  WINTER HAVEN FL 33882-5558",Active,,,,,,,,,,,,,,,,,,
329,HAWTHORNE,PUTNAM,29.66246666,-82.00926111,SANDERS RANCH AIRPORT,AIRPORT,SANDERS DRIVE S 1611 BADEN POWELL ROAD  HAWTHORNE FL 32640,Active,,,,,,,,,,,,,,,,,,
330,HAWTHORNE,PUTNAM,29.66770833,-81.95204166,MELROSE LANDING AIRSTRIP ,AIRPORT,267 MELROSE LANDING DRIVE  HAWTHORNE FL 32640,Active,,,,,,,,,,,,,,,,,,
331,HASTINGS,ST. JOHNS,29.68969444,-81.50680555,EARLE AIRPARK,AIRPORT,"EARLE, NORMAN 8701 HASTINGS BLVD  HASTINGS FL 32145",Active,,,,,,,,,,,,,,,,,,
332,HASTINGS,ST. JOHNS,29.67643055,-81.499,TATER FARMS STRIP,AIRPORT,5625 KELLY RD.  HASTINGS FL 32145,Active,,,,,,,,,,,,,,,,,,
333,ELKTON,ST. JOHNS,29.72833055,-81.43879444,HUTSON AIRFIELD,AIRPORT,SR 206 WEST  ST. AUGUSTINE FL 32033,Active,,,,,,,,,,,,,,,,,,
334,PORT SAINT LUCIE,ST. LUCIE,27.27782222,-80.58588888,EVANS PROPERTIES AIRPORT,AIRPORT,"EDWARDS, RONALD 660 BEACHLAND BLVD, #301  VERO BEACH FL 32963",Active,,,,,,,,,,,,,,,,,,
335,PORT SAINT LUCIE,ST. LUCIE,27.34198611,-80.522,AERO ACRES AIRPORT,AIRPORT,"OWEN, BEBE 18506 MACH ONE DRIVE  PORT ST. LUCIE FL 34987-3211",Active,,,,,,,,,,,,,,,,,,
336,PORT SAINT LUCIE,ST. LUCIE,27.24875,-80.494,TREASURE COAST AIRPARK,AIRPORT,12301 RANGE LINE ROAD  PORT SAINT LUCIE FL 34987,Active,,,,,,,,,,,,,,,,,,
337,PORT SAINT LUCIE,ST. LUCIE,27.36115277,-80.57088888,HALE 700 AIRPORT,AIRPORT,"EDWARDS, RONALD 660 BEACHLAND BLVD, SUITE 301  VERO BEACH FL 32963",Active,,,,,,,,,,,,,,,,,,
338,FORT PIERCE,ST. LUCIE,27.40892777,-80.42783055,WILLIAMS HAWGWILD AIRPORT,AIRPORT,"GORDY, JAMES 500 PULITZER ROAD  FT. PIERCE FL 34945",Active,,,,,,,,,,,,,,,,,,
339,FORT PIERCE,ST. LUCIE,27.44392777,-80.56505555,DRAGONFLY AIRPORT,AIRPORT,"ADAMS, MIKE P.O. BOX 12909  FT. PIERCE FL 34979-2909",Active,,,,,,,,,,,,,,,,,,
340,FORT PIERCE,ST. LUCIE,27.54725833,-80.66200277,SCOTT 2000 AIRPORT,AIRPORT,"EDWARDS, RONALD 660 BEACHLAND BLVD, SUITE 301  VERO BEACH FL 32963",Active,,,,,,,,,,,,,,,,,,
341,FORT PIERCE,ST. LUCIE,27.44198333,-80.58422222,ADAMS RANCH AIRPORT,AIRPORT,"ADAMS, MIKE P.O. BOX 12909  FT. PIERCE FL 34979-2909",Active,,,,,,,,,,,,,,,,,,
342,FORT PIERCE,ST. LUCIE,27.41142777,-80.52616666,SOUTHEASTERN AIRPORT,AIRPORT,"STONE, CHARLES 2720 SNEED ROAD  FORT PIERCE FL 34945-4711",Active,,,,,,,,,,,,,,,,,,
343,FORT PIERCE,ST. LUCIE,27.49506388,-80.36827222,ST LUCIE COUNTY INTERNATIONAL AIRPORT,AIRPORT,3000 CURTIS KING BOULEVARD  FORT PIERCE FL 34946,Active,,,,,,,,,,,,,,,,,,
344,JAY,SANTA ROSA,30.96934999,-87.05722222,THOMAS FARMS AIRPORT,AIRPORT,6220 TALL PNE ROAD  JAY FL 32565,Active,,,,,,,,,,,,,,,,,,
345,EGLIN AFB,SANTA ROSA,30.50694444,-86.95972222,CHOCTAW NOLF,AIRPORT,OPERATIONS CENTER 850-623-7333 U.S. NAVY MILTON FL ,Active,,,,,,,,,,,,,,,,,,
346,MILTON,SANTA ROSA,30.61666666,-87.13333333,SPENCER NOLF,AIRPORT,OPERATIONS CENTER 850-623-7333 U.S. NAVY PACE FL ,Active,,,,,,,,,,,,,,,,,,
347,MILTON,SANTA ROSA,30.49519722,-87.0858,GARCON FIELD AIRPORT,AIRPORT,"HENRY, EDWIN 1637 PEARSON ROAD  MILTON FL 32583",Active,,,,,,,,,,,,,,,,,,
348,MILTON,SANTA ROSA,30.72416666,-87.02194444,WHITING FIELD NAS - NORTH,AIRPORT,OPERATIONS CENTER 850-623-7333 U.S. NAVY MILTON FL ,Active,,,,,,,,,,,,,,,,,,
349,MILTON,SANTA ROSA,30.69713611,-87.01635277,WHITING FIELD NAS - SOUTH,AIRPORT,OPERATIONS CENTER 850-623-7333 U.S. NAVY MILTON FL ,Active,,,,,,,,,,,,,,,,,,
350,MILTON,SANTA ROSA,30.87768611,-86.85440555,BLACKWATER AIRFIELD,AIRPORT,FLORIDA FOREST SERVICE 11650 MUNSON HWY MILTON FL 32570,Active,,,,,,,,,,,,,,,,,,
351,MILTON,SANTA ROSA,30.61083333,-86.94,SANTA ROSA NOLF,AIRPORT,OPERATIONS CENTER 850-623-7333 U.S. NAVY MILTON FL ,Active,,,,,,,,,,,,,,,,,,
352,MILTON,SANTA ROSA,30.673525,-86.85190277,MCCUTCHAN AIRSTRIP,AIRPORT,11175 HIGHWAY 90  MILTON FL 32583,Active,,,,,,,,,,,,,,,,,,
353,MILTON,SANTA ROSA,30.63762222,-86.99365277,PETER PRINCE FIELD,AIRPORT,5550 NORTH AIRPORT ROAD  MILTON FL 32583,Active,,,,,,,,,,,,,,,,,,
354, ,SANTA ROSA,30.69965277,-87.19564722,PACE NOLF,AIRPORT,OPERATIONS CENTER 850-623-7333 U.S. NAVY WALLACE FL ,Active,,,,,,,,,,,,,,,,,,
355, ,SANTA ROSA,30.87601666,-87.20746944,BUCHANAN AIRPORT,AIRPORT,"BUCHANAN, GARY 2951 BUD DIAMOND ROAD  JAY FL 32565",Active,,,,,,,,,,,,,,,,,,
356, ,SANTA ROSA,30.72518888,-87.20136111,J-22 RANCH AIRPORT,AIRPORT,"COOK, CHARLES 7869 SKYHAWK ROAD  PACE FL 32571",Active,,,,,,,,,,,,,,,,,,
357, ,SANTA ROSA,30.85268611,-87.23552777,ODOMS FLYING SERVICE AIRPORT,AIRPORT,"ODOM, DOUGLAS 1870 MINERAL SPRINGS ROAD  JAY FL 32565",Active,,,,,,,,,,,,,,,,,,
358, ,SANTA ROSA,30.90212777,-87.17441388,JAY FLYING SERVICE AIRPORT,AIRPORT,"NELSON, JIMMY 3110 PINE LEVEL CHURCH ROAD  JAY FL 32565",Active,,,,,,,,,,,,,,,,,,
359, ,SANTA ROSA,30.68074722,-86.88718333,HAROLD NOLF,AIRPORT,OPERATIONS CENTER 850-623-7333 U.S. NAVY HAROLD FL ,Active,,,,,,,,,,,,,,,,,,
360,NAVARRE,SANTA ROSA,30.42519722,-86.89385,HOLLEY NOLF,AIRPORT,OPERATIONS CENTER 850-623-7333 U.S. NAVY FORT WALTON BEACH FL ,Active,,,,,,,,,,,,,,,,,,
361,NAVARRE,SANTA ROSA,30.40656944,-86.82912499,FT WALTON BEACH AIRPORT,AIRPORT,9401 NAVARRE PARKWAY  NAVARRE FL 32566,Active,,,,,,,,,,,,,,,,,,
362,SARASOTA,SARASOTA,27.34365555,-82.31731388,SCHWARTZ FARMS AIRPORT,AIRPORT,"SCHWARTZ, MICHAEL 13011 FRUITVILLE ROAD  SARASOTA FL 34240",Active,,,,,,,,,,,,,,,,,,
363,SARASOTA,SARASOTA,27.30310277,-82.27259166,HIDDEN RIVER AIRPORT,AIRPORT,"MARTENEY, DON 3776 HIDDEN RIVER RD.  SARASOTA FL 34240",Active,,,,,,,,,,,,,,,,,,
364,GENEVA,SEMINOLE,28.7325,-81.07888888,SOUTHERLAND STRIP,AIRPORT,"SHAW, DAN 244 NORTH JUNGLE ROAD  GENEVA FL 32732",Active,,,,,,,,,,,,,,,,,,
365,GENEVA,SEMINOLE,28.78194444,-81.15916666,CEDAR KNOLL FLYING RANCH AIRPORT,AIRPORT,"LOWERY, WILLIAM 3000 WEST OSCEOLA ROAD  GENEVA FL 32732",Active,,,,,,,,,,,,,,,,,,
366,OVIEDO,SEMINOLE,28.66694166,-81.08450555,BIG OAKS RANCH AIRPORT,AIRPORT,"GREEN, QUENTIN 623 GRAND CHENIER COVE CHULUOTA FL 32766",Active,,,,,,,,,,,,,,,,,,
367,WILDWOOD,SUMTER,28.81109999,-82.06536388,FREE FLIGHT INTERNATIONAL AIRPORT,AIRPORT,"ARENAS, FRANK P.O. BOX 600 1511 TAYLOR AVE. COLEMAN FL 33521",Active,,,,,,,,,,,,,,,,,,
368,BUSHNELL,SUMTER,28.64527777,-82.21888888,GRASS PATCH AIRPORT,AIRPORT,"WADE, JAMES 7787 SW 70TH DRIVE  BUSHNELL FL 33513",Active,,,,,,,,,,,,,,,,,,
369,BUSHNELL,SUMTER,28.67110277,-82.08730555,CHERYL-LANE LANDINGS,AIRPORT,"PURCELL, CHERYL P O BOX 1233  BUSHNELL FL 33513",Active,,,,,,,,,,,,,,,,,,
370,WEBSTER,SUMTER,28.59499444,-82.14980833,KO-KEE AIRPORT,AIRPORT,"JEFFERSON, KENNETH 37305 VERO LANE  DADE CITY FL 33525",Active,,,,,,,,,,,,,,,,,,
371, ,SUMTER,28.68333333,-82.16361111,FLYING W AIRRANCH AIRPORT,AIRPORT,"WILLIAMS, ROBBY 5020 COUNTY ROAD 316A  BUSHNELL FL 33513",Active,,,,,,,,,,,,,,,,,,
372, ,SUMTER,28.95916666,-82.13416666,S & S AVION RANCH AIRPORT,AIRPORT,"DOLLEN, STANLEY 1120 COUNTY ROAD 245 NORTH  OXFORD FL 34484",Active,,,,,,,,,,,,,,,,,,
373, ,SUMTER,28.91916666,-81.98166666,TCB AIRPORT,AIRPORT,"BOWLING, CARL 8480 NW 130TH ST  REDDICK FL 32686",Active,,,,,,,,,,,,,,,,,,
374, ,SUMTER,28.63194444,-82.15777777,CONNELLS WAHOO AIRPORT,AIRPORT,"CONNELL, PATRICIA 8400 COUNTY ROAD 614A  BUSHNELL FL 33513",Active,,,,,,,,,,,,,,,,,,
375,LIVE OAK,SUWANNEE,30.10911111,-83.18874722,THE TRAILS AIRPORT,AIRPORT,THE TRAILS P.O.A. 18400 211  ROAD  LIVE OAK FL 32060,Active,,,,,,,,,,,,,,,,,,
376,LIVE OAK,SUWANNEE,30.17751388,-82.99755555,RED BARN ACRES AIRPORT,AIRPORT,12153 CR 252  LIVE OAK FL 32060,Active,,,,,,,,,,,,,,,,,,
377,LIVE OAK,SUWANNEE,30.21129166,-83.05379166,AARON COLLINS AIRPORT,AIRPORT,"COLLINS, AARON 12544 BASS ROAD  LIVE OAK FL 32060",Active,,,,,,,,,,,,,,,,,,
378,LIVE OAK,SUWANNEE,30.33898611,-83.14370833,KITTY HAWK ESTATES AIRPORT,AIRPORT,"CAUDILL, KELLY 18786 60TH PLACE A  LIVE OAK FL 32060",Active,,,,,,,,,,,,,,,,,,
379,LIVE OAK,SUWANNEE,30.414625,-83.01776388,FLORIDA SHERIFFS BOYS RANCH AIRPORT,AIRPORT,"GOFF, BRUCE P.O. BOX 2000  BOYS RANCH FL 32064",Active,,,,,,,,,,,,,,,,,,
380,LIVE OAK,SUWANNEE,30.25023611,-82.92408333,WINGS N SUNSETS AIRPORT,AIRPORT,"WILLSON, CATHERINE 10852 89TH ROAD  LIVE OAK FL 32060",Active,,,,,,,,,,,,,,,,,,
381,LIVE OAK,SUWANNEE,30.30169999,-83.02359999,SUWANNEE COUNTY AIRPORT,AIRPORT,13308 80TH TERRACE  LIVE OAK FL 32060,Active,,,,,,,,,,,,,,,,,,
382, ,SUWANNEE,30.03568055,-82.967975,OBRIEN AIRPARK,AIRPORT,"VANSPRONSEN, PIETER P.O. BOX 257  O'BRIEN FL 32071",Active,,,,,,,,,,,,,,,,,,
383, ,SUWANNEE,30.23699999,-82.90619444,MOSS MEADOWS AIRPORT,AIRPORT,"MOSS, RONALD 11620 75TH DRIVE  LIVE OAK FL 32060",Active,,,,,,,,,,,,,,,,,,
384, ,SUWANNEE,30.4016,-82.95617222,SPIRIT OF SUWANNEE AIRPORT,AIRPORT,3076 95TH DRIVE  LIVE OAK FL 32060,Active,,,,,,,,,,,,,,,,,,
385, ,SUWANNEE,29.96416666,-82.87361111,FLYING C FARM AIRPORT,AIRPORT,"CASSUBE, ROBERT P O BOX 266 26859 63RD. PL BRANFORD FL 32008",Active,,,,,,,,,,,,,,,,,,
386, ,SUWANNEE,30.42504166,-83.04846944,PITTMAN OAKS AIRPORT,AIRPORT,1253 145TH ROAD  LIVE OAK FL 32060,Active,,,,,,,,,,,,,,,,,,
387,MC ALPIN,SUWANNEE,30.12244722,-82.96790833,BUDDY'S AG SERVICE AIRPORT,AIRPORT,10791 184TH STREET  MCALPIN FL 32062,Active,,,,,,,,,,,,,,,,,,
388,MC ALPIN,SUWANNEE,30.11494999,-82.90901666,LITTLE RIVER AIRPORT,AIRPORT,P.O.BOX 81  MCALPIN FL 32062,Active,,,,,,,,,,,,,,,,,,
389,MC ALPIN,SUWANNEE,30.09024999,-83.05472222,SUWANNEE FARMS AIRPORT,AIRPORT,"HALL, JOSEPH 19620 COUNTY ROAD 349 NORTH  O'BRIEN FL 32071",Active,,,,,,,,,,,,,,,,,,
390,MC ALPIN,SUWANNEE,30.09883888,-82.92762777,BUCKNER AIRSTRIP,AIRPORT,"HOLTZCLAW, J 21809 93RD DRIVE  O'BRIEN FL 32071",Active,,,,,,,,,,,,,,,,,,
391,O BRIEN,SUWANNEE,29.98188888,-82.83555555,THOMPSON AIRFIELD,AIRPORT,"BOSSERMAN, TERRY 4541 256TH ST. O'BRIEN FL 32071",Active,,,,,,,,,,,,,,,,,,
392,O BRIEN,SUWANNEE,30.09379166,-83.08488888,SUWANNEE BELLE AIRPORT,AIRPORT,"RIKANSRUD, ERIC 10121 SNUG HARBOR ROAD  ST. PETERSBURG FL 33702",Active,,,,,,,,,,,,,,,,,,
393,BRANFORD,SUWANNEE,29.97518055,-82.90723611,FLINTS FLYING RANCH AIRPORT,AIRPORT, 7779 264TH STREET  BRANFORD FL 32008,Active,,,,,,,,,,,,,,,,,,
394,PERRY,TAYLOR,29.82073611,-83.57315277,SYLVANMIR FARMS AIRPORT,AIRPORT,"KOHLER, WILLIAM 24087 TWISTER LANE  BROOKSVILLE FL 34602",Active,,,,,,,,,,,,,,,,,,
395,PERRY,TAYLOR,30.13045833,-83.55148611,LUMARS STOLPORT,AIRPORT,"TURNER, LUTHER 2150 ELLISON ROAD  PERRY FL 32347",Active,,,,,,,,,,,,,,,,,,
396,PERRY,TAYLOR,30.06935277,-83.58061944,PERRY-FOLEY AIRPORT,AIRPORT,511 INDUSTRIAL DRIVE  PERRY FL 32348,Active,,,,,,,,,,,,,,,,,,
397,SALEM,TAYLOR,29.72647222,-83.35127777,STEINHATCHEE ANCIENT OAKS AIRPORT,AIRPORT,"RICE, ALLEN P.O. BOX 279  STEINHATCHEE FL 32359",Active,,,,,,,,,,,,,,,,,,
398,KEATON BEACH,TAYLOR,29.90461111,-83.60722222,EZELL AIRPORT,AIRPORT,"EZELL, DANNY 15030 BEACH ROAD  PERRY FL 32348",Active,,,,,,,,,,,,,,,,,,
399,LAKE BUTLER,UNION,29.93515277,-82.41077777,FLYING TIGER AIRPORT,AIRPORT,J.D RIMES JR P.O. BOX 22 WORTHINGTON SPRINGS FL 32697,Active,,,,,,,,,,,,,,,,,,
400,DELAND,VOLUSIA,29.16859166,-81.26478333,LAFAYETTE LANDINGS AIRPORT,AIRPORT,"LONG, DENNIS 3151 LAFAYETTE LANDINGS DR.  DELEON SPRINGS FL 32130",Active,,,,,,,,,,,,,,,,,,
401,DELAND,VOLUSIA,29.06698055,-81.28394166,DELAND MUNICIPAL - SIDNEY H TAYLOR FIELD,AIRPORT,1777 LANGLEY AVE  DELAND FL 32724,Active,,,,,,,,,,,,,,,,,,
402,DELAND,VOLUSIA,29.10442777,-81.31367499,BOB LEE FLIGHT STRIP,AIRPORT,5000 BOB LEE AIRPORT ROAD  DELAND FL 32724,Active,,,,,,,,,,,,,,,,,,
403, ,VOLUSIA,29.25109166,-81.20144999,SQUILLACOTE STOLPORT,AIRPORT,"SQUILLACOTE, STEVE 3120 WEST GRANADA BLVD  ORMOND BEACH FL 32174",Active,,,,,,,,,,,,,,,,,,
404, ,VOLUSIA,29.01070527,-81.1322525,COE FIELD,AIRPORT,1300 E. INTL SPEEDWAY BLVD  DELAND FL 32724,Active,,,,,,,,,,,,,,,,,,
405,ORMOND BEACH,VOLUSIA,29.239425,-81.22200555,CROSS CREEK FARMS STOLPORT,AIRPORT,DAVID HIGGS 274 WOODHAVEN CIR W ORMOND BEACH FL 32174,Active,,,,,,,,,,,,,,,,,,
406,ORMOND BEACH,VOLUSIA,29.30114444,-81.11380833,ORMOND BEACH MUNICIPAL AIRPORT,AIRPORT,AIRPORT ROAD  ORMOND BEACH FL 32174,Active,,,,,,,,,,,,,,,,,,
407,EDGEWATER,VOLUSIA,28.88804444,-80.86644166,HIGHLANDER AIRPORT,AIRPORT,MARK HAYNES 520 HIGHLANDER DRIVE  OAK HILL FL 32759,Active,,,,,,,,,,,,,,,,,,
408,EDGEWATER,VOLUSIA,28.978875,-80.92505277,MASSEY RANCH AIRPARK,AIRPORT,635 AIRPARK ROAD  EDGEWATER FL 32132,Active,,,,,,,,,,,,,,,,,,
409,OAK HILL,VOLUSIA,28.85721111,-80.907,BLUE RIDGE FLIGHTPARK,AIRPORT,"AURIGEMA, ANDREW 1685 MAYTOWN ROAD  OAK HILL FL 32759",Active,,,,,,,,,,,,,,,,,,
410,PORT ORANGE,VOLUSIA,29.07803888,-81.0445,SPRUCE CREEK FLY-IN AIRPORT,AIRPORT,"CUNNEEN, DICK 212-1 CESSNA BLVD  PORT ORANGE FL 32128",Active,,,,,,,,,,,,,,,,,,
411,DEFUNIAK SPRINGS,WALTON,30.84472222,-86.28138888,THE UNICORN PLACE AIRPORT,AIRPORT,"SOHN, RICHARD 8029 HIGHWAY 1087  NEW HARMONY FL 32433",Active,,,,,,,,,,,,,,,,,,
412,DEFUNIAK SPRINGS,WALTON,30.7363,-86.21299999,CEDAR LANE AIRPORT,AIRPORT,"ESTATE OF ROBERTS, MAURICE W. 460 BOY SCOUT ROAD  DEFUNIAK SPRINGS FL 32435",Active,,,,,,,,,,,,,,,,,,
413,DEFUNIAK SPRINGS,WALTON,30.65213611,-86.10938333,JOY FARMS AIRPORT,AIRPORT,"GOFF, BRIAN 4979 SOUTH HIGHWAY 331  DEFUNIAK SPRINGS FL 32435",Active,,,,,,,,,,,,,,,,,,
414,DEFUNIAK SPRINGS,WALTON,30.7313,-86.15377777,DEFUNIAK SPRINGS AIRPORT,AIRPORT,1931 U.S. HIGHWAY 90 WEST  DEFUNIAK SPRINGS FL 32435-0685,Active,,,,,,,,,,,,,,,,,,
415, ,WALTON,30.82,-86.34444444,BREEZY KNOLL AIRPORT,AIRPORT,"WATERMAN, VICTORIA 1359 LONG ROAD  DEFUNIAK SPRINGS FL 32433",Active,,,,,,,,,,,,,,,,,,
416, ,WALTON,30.91888888,-86.21833333,SKYDIVE LIVE AIRPORT,AIRPORT,"NIPPER, MELANIE 5138 COUNTY HIGHWAY 0605  DE FUNIAK SPRINGS FL 32433",active,,,,,,,,,,,,,,,,,,
417, ,WALTON,30.49641666,-86.09383333,DUGGER FIELD,AIRPORT,"BOGLE, MELODY 259 SAN JUAN AVENUE  SEAGROVE BEACH FL 32459",Active,,,,,,,,,,,,,,,,,,
418, ,WALTON,30.64277777,-86.11833333,CUCHENS AIRPORT,AIRPORT,219 SUCHENS LANE  DEFUNIAK SPRINGS FL 32435,Active,,,,,,,,,,,,,,,,,,
419,CHIPLEY,WASHINGTON,30.45111111,-85.67722222,CRYSTAL VILLAGE AIRPORT,AIRPORT,"THOMAS, TERRY 5131 PANTHER TRAIL  CHIPLEY FL 32428",Active,,,,,,,,,,,,,,,,,,
420,BONIFAY,WASHINGTON,30.77916666,-85.76861111,GARNER FIELD,AIRPORT,3849 HIGHWAY 90  BONIFAY FL 32425,Active,,,,,,,,,,,,,,,,,,
421,VERNON,WASHINGTON,30.49027777,-85.83944444,REDHEAD AIRPORT,AIRPORT,"GARRETT, TOMMY 5801 HIGHWAY 79  VERNON FL 32462",Active,,,,,,,,,,,,,,,,,,
422, ,WASHINGTON,30.61722222,-85.70555555,AERO VILLA AIRPORT,AIRPORT,"LAND, LARRY P.O. BOX 365  VERNON FL 32462",Active,,,,,,,,,,,,,,,,,,
423,AVON PARK,HIGHLANDS,27.59114444,-81.52785277,AVON PARK EXECUTIVE AIRPORT,AIRPORT,1545 STATE ROAD 64 WEST  AVON PARK FL 33825,Active,,,,,,,,,,,,,,,,,,
424,HOLLYWOOD,BROWARD,26.00142416,-80.24052055,NORTH PERRY AIRPORT,AIRPORT,101 SOUTH WEST 77TH WAY  PEMBROKE PINES FL 33023,Active,,,,,,,,,,,,,,,,,,
425,NEWBERRY,GILCHRIST,29.72013888,-82.66395833,OAK TREE LANDING AIRPORT,AIRPORT,1400 SOUTHEAST 80TH AVENUE  NEWBERRY FL 32669,Active,,,,,,,,,,,,,,,,,,
426,MOUNT DORA,LAKE,28.84335111,-81.63002416,MID FLORIDA AIR SERVICE AIRPORT,AIRPORT,19708 EUSTIS AIRPORT ROAD  EUSTIS FL 32736,Active,,,,,,,,,,,,,,,,,,
427,LUTZ,PASCO,28.22128055,-82.37454722,TAMPA NORTH AERO PARK,AIRPORT,4241 BIRDSONG BOULEVARD  LUTZ FL 33559,Active,,,,,,,,,,,,,,,,,,
428,CRYSTAL RIVER,CITRUS,28.86727777,-82.57130555,CRYSTAL RIVER AIRPORT,AIRPORT,718 NORTH LINDBERGH DRIVE  CRYSTAL RIVER FL 34429,Active,,,,,,,,,,,,,,,,,,
429,OPA LOCKA,MIAMI-DADE,25.907025,-80.27838888,OPA-LOCKA EXECUTIVE AIRPORT,AIRPORT,14201 NORTHWEST  LEJEUNE ROAD  OPA-LOCKA FL 33054,Active,,,,,,,,,,,,,,,,,,
430,PLANT CITY,HILLSBOROUGH,28.00021666,-82.16424166,PLANT CITY AIRPORT,AIRPORT,4007 AIRPORT ROAD  PLANT CITY FL 33563,Active,,,,,,,,,,,,,,,,,,
431,SANFORD,SEMINOLE,28.77764,-81.23748944,ORLANDO SANFORD INTERNATIONAL AIRPORT,AIRPORT,1200 RED CLEVELAND BOULEVARD  SANFORD FL 32773-6844,Active,,,,,,,,,,,,,,,,,,
432,BONIFAY,HOLMES,30.84577777,-85.60138888,TRI-COUNTY AIRPORT,AIRPORT,1983 AIRPORT ROAD  BONIFAY FL 32425,Active,,,,,,,,,,,,,,,,,,
433,HILLIARD,NASSAU,30.68801111,-81.90594444,HILLIARD AIRPARK,AIRPORT,37776 EAST WOOD ROAD  HILLIARD FL 32046,Active,,,,,,,,,,,,,,,,,,
434,NEW SMYRNA BEACH,VOLUSIA,29.05569444,-80.94890833,NEW SMYRNA BEACH MUNICIPAL AIRPORT,AIRPORT,600 SKYLINE DRIVE  NEW SMYRNA FL 32168,Active,,,,,,,,,,,,,,,,,,
435,EASTPOINT,FRANKLIN,29.64458402,-84.91559894,ST GEORGE ISLAND AIRPORT,AIRPORT,1501 LONG POINT ROAD  ST. GOERGE ISLAND FL 32328,Active,,,,,,,,,,,,,,,,,,
436,PALATKA,PUTNAM,29.65858055,-81.68869444,PALATKA MUNICIPAL-LT. KAY LARKIN FIELD,AIRPORT,4015 REID STREET  PALATKA FL 32177,Active,,,,,,,,,,,,,,,,,,
437,QUINCY,GADSDEN,30.59786111,-84.55743888,QUINCY MUNICIPAL AIRPORT,AIRPORT,1300 AIRPORT DRIVE  QUINCY FL 32351,Active,,,,,,,,,,,,,,,,,,
438,BELLE GLADE,PALM BEACH,26.69830555,-80.66080555,BELLE GLADE STATE MUNICIPAL AIRPORT,AIRPORT,250 GATOR BOULEVARD  BELLE GLADE FL 33430,Active,,,,,,,,,,,,,,,,,,
439,MERRITT ISLAND,BREVARD,28.34158888,-80.68549722,MERRITT ISLAND AIRPORT,AIRPORT,900 AIRPORT RD.  MERRITT ISLAND FL 32952,Active,,,,,,,,,,,,,,,,,,
440,MARATHON,MONROE,24.72618277,-81.05136777,THE FLORIDA KEYS MARATHON AIRPORT,AIRPORT,"9400 OVERSEAS HIGHWAY, SUITE 200  MARATHON FL 33050",Active,,,,,,,,,,,,,,,,,,
441,SARASOTA,MANATEE,27.39545277,-82.55438611,SARASOTA / BRADENTON INTERNATIONAL AIRPORT,AIRPORT,6000 AIRPORT CIRCLE  SARASOTA FL 34243-2105,Active,,,,,,,,,,,,,,,,,,
442,WINTER HAVEN,POLK,28.06291944,-81.75331666,WINTER HAVEN'S GILBERT AIRPORT,AIRPORT,2073 HIGHWAY 92 WEST  WINTER HAVEN FL 33881,Active,,,,,,,,,,,,,,,,,,
443,SEBASTIAN,INDIAN RIVER,27.81280277,-80.49560833,SEBASTIAN MUNICIPAL AIRPORT,AIRPORT,202 AIRPORT DRIVE EAST  SEBASTIAN FL 32958,Active,,,,,,,,,,,,,,,,,,
444,BLOUNTSTOWN,CALHOUN,30.48822222,-85.11381944,CALHOUN COUNTY AIRPORT,AIRPORT,16701 NORTHWEST AGRIPARK ROAD  ALTHA FL 32421,Active,,,,,,,,,,,,,,,,,,
445,LAKE WALES,POLK,27.89380277,-81.62041111,LAKE WALES MUNICIPAL AIRPORT,AIRPORT,450 AIRPORT ROAD SOUTH  LAKE WALES FL 33859-1320,Active,,,,,,,,,,,,,,,,,,
446,LAKE WALES,POLK,27.78224999,-81.20534444,RIVER RANCH RESORT AIRPORT,AIRPORT,3600 RIVER RANCH BOULEVARD  RIVER RANCH FL 33867,Active,,,,,,,,,,,,,,,,,,
447,CLEARWATER,PINELLAS,27.97668638,-82.75874027,CLEARWATER AIR PARK,AIRPORT,1000 NORTH HERCULES AVENUE  CLEARWATER FL 33765,Active,,,,,,,,,,,,,,,,,,
448,CLEARWATER,PINELLAS,27.91076333,-82.68743944,ST PETE-CLEARWATER INTERNATIONAL AIRPORT,AIRPORT,14700 TERMINAL BOULEVARD AIRPORT DIRECTOR'S OFFICE - SUITE 221 CLEARWATER FL 33762,Active,,,,,,,,,,,,,,,,,,
449,SEBRING,HIGHLANDS,27.45640277,-81.34239999,SEBRING REGIONAL AIRPORT,AIRPORT,128 AUTHORITY LANE  SEBRING FL 33870,Active,,,,,,,,,,,,,,,,,,
450,DAYTONA BEACH,VOLUSIA,29.17991666,-81.05805555,DAYTONA BEACH INTERNATIONAL AIRPORT,AIRPORT,"700 CATALINA DRIVE, SUITE 300  DAYTONA BEACH FL 32114",Active,,,,,,,,,,,,,,,,,,
451,DESTIN,OKALOOSA,30.40005638,-86.47147416,DESTIN - FT WALTON BEACH AIRPORT,AIRPORT,1001 AIRPORT ROAD  DESTIN FL 32541,Active,,,,,,,,,,,,,,,,,,
452,MALABAR,BREVARD,27.96086111,-80.55833333,VALKARIA AIRPORT,AIRPORT,2865 GREENBROOKE STREET  VALKARIA FL 32950,Active,,,,,,,,,,,,,,,,,,
453,TITUSVILLE,BREVARD,28.51479944,-80.7992275,SPACE COAST REGIONAL AIRPORT,AIRPORT,355 GOLDEN KNIGHTS BOULEVARD  TITUSVILLE FL 32780,Active,,,,,,,,,,,,,,,,,,
454,TITUSVILLE,BREVARD,28.62255166,-80.83540972,ARTHUR DUNN AIR PARK,AIRPORT,476 NORTH WILLIAMS AVENUE  TITUSVILLE FL 32780,Active,,,,,,,,,,,,,,,,,,
455,MELBOURNE,BREVARD,28.10274999,-80.64580555,MELBOURNE INTERNATIONAL AIRPORT,AIRPORT,ONE AIR TERMINAL PARKWAY SUITE 220 MELBOURNE FL 32901-1888,Active,,,,,,,,,,,,,,,,,,
456,LAKE WORTH,PALM BEACH,26.59305555,-80.08506461,PALM BEACH COUNTY PARK AIRPORT,AIRPORT,2633 LANTANA RD  LANTANA FL 33462,Active,,,,,,,,,,,,,,,,,,
457,FERNANDINA BEACH,NASSAU,30.60968333,-81.46064722,FERNANDINA BEACH MUNICIPAL AIRPORT,AIRPORT,700 AIRPORT ROAD  FERNANDINA BEACH FL 32034,Active,,,,,,,,,,,,,,,,,,
458,APALACHICOLA,FRANKLIN,29.72758055,-85.02740555,APALACHIACOLA REGIONAL - CLEVE RANDOLPH FIELD,AIRPORT,8 AIRPORT ROAD  APALACHICOLA FL 32320,Active,,,,,,,,,,,,,,,,,,
459,APOPKA,ORANGE,28.70747444,-81.58196444,ORLANDO APOPKA AIRPORT,AIRPORT,1321 APOPKA AIRPORT ROAD  APOPKA FL 32712,Active,,,,,,,,,,,,,,,,,,
460,IMMOKALEE,COLLIER,26.43316666,-81.40102777,IMMOKALEE REGIONAL AIRPORT,AIRPORT,165 AIRPORT BOULEVARD  IMMOKALEE FL 34142,Active,,,,,,,,,,,,,,,,,,
461,VENICE,SARASOTA,27.07161111,-82.44034722,VENICE MUNICIPAL AIRPORT,AIRPORT,150 EAST AIRPORT AVENUE  VENICE FL 34285,Active,,,,,,,,,,,,,,,,,,
462,FORT LAUDERDALE,BROWARD,26.07258333,-80.15274999,FT LAUDERDALE/HOLLYWOOD INTERNATIONAL AIRPORT,AIRPORT,2200 SOUTHWEST 45TH STREET  DANIA BEACH FL 33312,Active,,,,,,,,,,,,,,,,,,
463,FORT LAUDERDALE,BROWARD,26.19727777,-80.17071111,FT LAUDERDALE EXECUTIVE AIRPORT,AIRPORT,6000 NORTHWEST 21ST AVENUE  FORT LAUDERDALE FL 33309,Active,,,,,,,,,,,,,,,,,,
464,STUART,MARTIN,27.18169999,-80.22129166,WITHAM FIELD,AIRPORT,2011 SOUTHEAST AIRPORT ROAD  STUART FL 34996,Active,,,,,,,,,,,,,,,,,,
465,PALM COAST,FLAGLER,29.46738888,-81.20633333,FLAGLER COUNTY AIRPORT,AIRPORT,201 AIRPORT ROAD  PALM COAST FL 32164,Active,,,,,,,,,,,,,,,,,,
466,MULBERRY,POLK,27.93335805,-82.04397388,SOUTH LAKELAND AIRPORT,AIRPORT,7500 CORONET ROAD  MULBERRY FL 33860-8307,Active,,,,,,,,,,,,,,,,,,
467,SAINT PETERSBURG,PINELLAS,27.76511111,-82.62697222,ALBERT WHITTED AIRPORT,AIRPORT,107 8TH AVENUE SOUTHEAST  SAINT PETERSBURG FL 33701,Active,,,,,,,,,,,,,,,,,,
468,PAHOKEE,PALM BEACH,26.78583888,-80.69344722,PALM BEACH COUNTY GLADES AIRPORT,AIRPORT,3800 STATE ROAD 715  PAHOKEE FL 33476-3029,Active,,,,,,,,,,,,,,,,,,
469,ENGLEWOOD,SARASOTA,26.98978055,-82.37315,BUCHAN AIRPORT,AIRPORT,1390 OLD ENGLEWOOD ROAD  VENICE FL 34285,Active,,,,,,,,,,,,,,,,,,
470,WILLISTON,LEVY,29.35416666,-82.47277777,WILLISTON MUNICIPAL AIRPORT,AIRPORT,1800 SOUTH WEST 19TH AVENUE  WILLISTON FL 32696,Active,,,,,,,,,,,,,,,,,,
471,CROSS CITY,DIXIE,29.63444444,-83.10555555,CROSS CITY AIRPORT,AIRPORT,1516 AIRPORT ROAD  CROSS CITY FL 32628,Active,,,,,,,,,,,,,,,,,,
472,UMATILLA,LAKE,28.922765,-81.65174111,UMATILLA MUNICIPAL AIRPORT,AIRPORT,480 EAST CASSADY DRIVE  UMATILLA FL 32784-2286,Active,,,,,,,,,,,,,,,,,,
473,BOCA RATON,PALM BEACH,26.37848666,-80.10769666,BOCA RATON AIRPORT,AIRPORT,"3701 FAU BLVD., SUITE 205  BOCA RATON FL 33431",Active,,,,,,,,,,,,,,,,,,
474,PORT SAINT JOE,GULF,29.75854444,-85.28908333,COSTIN AIRPORT,AIRPORT,167 CESSNA DRIVE  PORT SAINT JOE FL 32456,Active,,,,,,,,,,,,,,,,,,
475,ZEPHYRHILLS,PASCO,28.22806388,-82.15591638,ZEPHYRHILLS MUNICIPAL AIRPORT,AIRPORT,39450 SOUTH AVENUE  ZEPHYRHILLS FL 33542,Active,,,,,,,,,,,,,,,,,,
476,INVERNESS,CITRUS,28.80859722,-82.31648055,INVERNESS AIRPORT,AIRPORT,3528 SOUTH AIRPORT ROAD  INVERNESS FL 34450,Active,,,,,,,,,,,,,,,,,,
477,SPRING HILL,PASCO,28.33028333,-82.49648333,PILOT COUNTRY AIRPORT,AIRPORT,11500 PILOT COUNTRY DRIVE  SPRING HILL FL 34610,Active,,,,,,,,,,,,,,,,,,
478,BARTOW,POLK,27.94335833,-81.78344166,BARTOW MUNICIPAL AIRPORT,AIRPORT,5001 HIGHWAY 17 NORTH  BARTOW FL 33830,Active,,,,,,,,,,,,,,,,,,
479,PIERSON,VOLUSIA,29.25,-81.45923611,PIERSON MUNICIPAL AIRPORT,AIRPORT,305 NORTH CENTER STREET  PIERSON FL 32180,Active,,,,,,,,,,,,,,,,,,
480,SAINT AUGUSTINE,ST. JOHNS,29.95924999,-81.33975,NORTHEAST FLORIDA REGIONAL AIRPORT,AIRPORT,4796 US HIGHWAY 1 NORTH  ST. AUGUSTINE FL 32095,Active,,,,,,,,,,,,,,,,,,
481,PANACEA,WAKULLA,29.98926944,-84.39584166,WAKULLA COUNTY AIRPORT,AIRPORT,30 BAY DRIVE  PANACEA FL 32346,Active,,,,,,,,,,,,,,,,,,
482,POMPANO BEACH,BROWARD,26.24713888,-80.11105555,POMPANO BEACH AIRPARK,AIRPORT,1001 NORTHEAST 10TH STREET  POMPANO BEACH FL 33060,Active,,,,,,,,,,,,,,,,,,
483, ,,,,,DISASTER RECOVERY CENTER-MOBILE,,,-82.50695500,27.29052100,,,,,,,,,,,,,,,,
484, ,,,,,DISASTER RECOVERY CENTER-MOBILE,,,-82.44821300,29.38795100,,,,,,,,,,,,,,,,
485, ,,,,,DISASTER RECOVERY CENTER-MOBILE,,,-81.48846010,27.59401180,,,,,,,,,,,,,,,,
486, ,,,,,DISASTER RECOVERY CENTER-MOBILE,,,-82.56168170,27.51498620,,,,,,,,,,,,,,,,
487, ,,,,,DISASTER RECOVERY CENTER-MOBILE,,,-82.50556090,27.29863600,,,,,,,,,,,,,,,,
488, ,,,,,DISASTER RECOVERY CENTER-MOBILE,,,-80.86797560,27.15157490,,,,,,,,,,,,,,,,
489, ,,,,,DISASTER RECOVERY CENTER-MOBILE,,,-82.13473010,27.00896540,,,,,,,,,,,,,,,,
490, ,,,,,DISASTER RECOVERY CENTER-MOBILE,,,-80.93146650,26.75294600,,,,,,,,,,,,,,,,
491, ,,,,,DISASTER RECOVERY CENTER-MOBILE,,,-81.83633380,27.22581000,,,,,,,,,,,,,,,,
492, ,,,,,DISASTER RECOVERY CENTER-MOBILE,,,-81.43146620,27.48718360,,,,,,,,,,,,,,,,
493, ,,,,,DISASTER RECOVERY CENTER-MOBILE,,,-82.53222300,27.36606970,,,,,,,,,,,,,,,,
494, ,,,,,DISASTER RECOVERY CENTER-MOBILE,,,-81.35860970,24.66868970,,,,,,,,,,,,,,,,
495, ,,,,,DISASTER RECOVERY CENTER-MOBILE,,,-81.03690100,27.38848700,,,,,,,,,,,,,,,,
496, ,,,,,DISASTER RECOVERY CENTER-MOBILE,,,-82.48741690,27.19436700,,,,,,,,,,,,,,,,
497, ,,,,,DISASTER RECOVERY CENTER-MOBILE,,,-81.43566210,26.75963210,,,,,,,,,,,,,,,,
498, ,,,,,DISASTER RECOVERY CENTER-MOBILE,,,-81.84417520,27.20857240,,,,,,,,,,,,,,,,
499, ,,,,,DISASTER RECOVERY CENTER-MOBILE,,,-81.08228270,26.82227160,,,,,,,,,,,,,,,,
500, ,,,,,DISASTER RECOVERY CENTER-MOBILE,,,-81.71277870,26.71777350,,,,,,,,,,,,,,,,
501, ,,,,,DISASTER RECOVERY CENTER-MOBILE,,,-81.63373580,26.59517050,,,,,,,,,,,,,,,,
502, ,,,,,DISASTER RECOVERY CENTER-MOBILE,,,-80.81263000,27.25046300,,,,,,,,,,,,,,,,
503, ,,,,,DISASTER RECOVERY CENTER-MOBILE,,,-81.83480610,30.56173750,,,,,,,,,,,,,,,,
504, ,,,,,DISASTER RECOVERY CENTER-MOBILE,,,-81.37254290,27.29371980,,,,,,,,,,,,,,,,
505, ,,,,,DISASTER RECOVERY CENTER-MOBILE,,,-81.43795760,26.76340000,,,,,,,,,,,,,,,,
506,ALACHUA,ALACHUA,,,,DISASTER RECOVERY CENTER-MOBILE,,,-82.49322052,29.79267387,,,,,,,,,,,,,,,,
507,HAWTHORNE,ALACHUA,,,,DISASTER RECOVERY CENTER-MOBILE,,,-82.08679035,29.58612338,,,,,,,,,,,,,,,,
508,NEWBERRY,ALACHUA,,,,DISASTER RECOVERY CENTER-MOBILE,,,-82.49477119,29.68589740,,,,,,,,,,,,,,,,
509,GAINESVILLE,ALACHUA,,,,DISASTER RECOVERY CENTER-MOBILE,,,-82.27287642,29.63878247,,,,,,,,,,,,,,,,
510,GAINESVILLE,ALACHUA,,,,DISASTER RECOVERY CENTER-MOBILE,,,-82.38961597,29.63582580,,,,,,,,,,,,,,,,
511,ARCHER,ALACHUA,,,,DISASTER RECOVERY CENTER-MOBILE,,,-82.52496731,29.53357700,,,,,,,,,,,,,,,,
512,FOUNTAIN,BAY,,,,DISASTER RECOVERY CENTER-MOBILE,,,-85.41729500,30.43903900,,,,,,,,,,,,,,,,
513,PANAMA CITY,BAY,,,,DISASTER RECOVERY CENTER-MOBILE,,,-85.50861100,30.24532900,,,,,,,,,,,,,,,,
514,PANAMA CITY,BAY,,,,DISASTER RECOVERY CENTER-MOBILE,,,-85.50861100,30.24532900,,,,,,,,,,,,,,,,
515,PANAMA CITY,BAY,,,,DISASTER RECOVERY CENTER-MOBILE,,,-85.50861100,30.24532900,,,,,,,,,,,,,,,,
516,PANAMA CITY,BAY,,,,DISASTER RECOVERY CENTER-MOBILE,,,-85.60504100,30.12967700,,,,,,,,,,,,,,,,
517,PANAMA CITY,BAY,,,,DISASTER RECOVERY CENTER-MOBILE,,,-85.75032327,30.13992731,,,,,,,,,,,,,,,,
518,PANAMA CITY BEACH,BAY,,,,DISASTER RECOVERY CENTER-MOBILE,,,-85.87730200,30.23087100,,,,,,,,,,,,,,,,
519,PANAMA CITY BEACH,BAY,,,,DISASTER RECOVERY CENTER-MOBILE,,,-85.87730200,30.23087100,,,,,,,,,,,,,,,,
520,PANAMA CITY BEACH,BAY,,,,DISASTER RECOVERY CENTER-MOBILE,,,-85.87730200,30.23087100,,,,,,,,,,,,,,,,
521,STARKE,BRADFORD,,,,DISASTER RECOVERY CENTER-MOBILE,,,-82.11316747,29.93751775,,,,,,,,,,,,,,,,
522,STARKE,BRADFORD,,,,DISASTER RECOVERY CENTER-MOBILE,,,-82.11382876,29.94399074,,,,,,,,,,,,,,,,
523,STARKE,BRADFORD,,,,DISASTER RECOVERY CENTER-MOBILE,,,-82.10532524,29.96367305,,,,,,,,,,,,,,,,
524,LAWTEY,BRADFORD,,,,DISASTER RECOVERY CENTER-MOBILE,,,-82.07185139,30.04716881,,,,,,,,,,,,,,,,
525,FORT LAUDERDALE,BROWARD,,,,DISASTER RECOVERY CENTER-MOBILE,,,-80.17783300,26.10883400,,,,,,,,,,,,,,,,
526,FORT LAUDERDALE,BROWARD,,,,DISASTER RECOVERY CENTER-MOBILE,,,-80.25646993,26.12138040,,,,,,,,,,,,,,,,
527,POMPANO BEACH,BROWARD,,,,DISASTER RECOVERY CENTER-MOBILE,,,-80.16299303,26.27360455,,,,,,,,,,,,,,,,
528,HOLLYWOOD,BROWARD,,,,DISASTER RECOVERY CENTER-MOBILE,,,-80.14306900,26.01835300,,,,,,,,,,,,,,,,
529,SUNRISE,BROWARD,,,,DISASTER RECOVERY CENTER-MOBILE,,,-80.25267627,26.16881904,,,,,,,,,,,,,,,,
530,DANIA,BROWARD,,,,DISASTER RECOVERY CENTER-MOBILE,,,-80.14473800,26.05163143,,,,,,,,,,,,,,,,
531,ALTHA,CALHOUN,,,,DISASTER RECOVERY CENTER-MOBILE,,,-85.18364276,30.44990513,,,,,,,,,,,,,,,,
532,BLOUNTSTOWN,CALHOUN,,,,DISASTER RECOVERY CENTER-MOBILE,,,-85.13881307,30.29072212,,,,,,,,,,,,,,,,
533,PORT CHARLOTTE,CHARLOTTE,,,,DISASTER RECOVERY CENTER-MOBILE,,,-82.22356141,26.93257996,,,,,,,,,,,,,,,,
534,PORT CHARLOTTE,CHARLOTTE,,,,DISASTER RECOVERY CENTER-MOBILE,,,-82.14680939,27.01048518,,,,,,,,,,,,,,,,
535,PUNTA GORDA,CHARLOTTE,,,,DISASTER RECOVERY CENTER-MOBILE,,,-81.99920159,26.94805933,,,,,,,,,,,,,,,,
536,PUNTA GORDA,CHARLOTTE,,,,DISASTER RECOVERY CENTER-MOBILE,,,-82.02180115,26.92941291,,,,,,,,,,,,,,,,
537,ENGLEWOOD,CHARLOTTE,,,,DISASTER RECOVERY CENTER-MOBILE,,,-82.31394359,26.91824532,,,,,,,,,,,,,,,,
538,LECANTO,CITRUS,,,,DISASTER RECOVERY CENTER-MOBILE,,,-82.48075610,28.90607174,,,,,,,,,,,,,,,,
539,MIDDLEBURG,CLAY,,,,DISASTER RECOVERY CENTER-MOBILE,,,-81.76541782,30.10008381,,,,,,,,,,,,,,,,
540,GREEN COVE SPRINGS,CLAY,,,,DISASTER RECOVERY CENTER-MOBILE,,,-81.74060104,29.98033550,,,,,,,,,,,,,,,,
541,GREEN COVE SPRINGS,CLAY,,,,DISASTER RECOVERY CENTER-MOBILE,,,-81.64897187,29.97995603,,,,,,,,,,,,,,,,
542,ORANGE PARK,CLAY,,,,DISASTER RECOVERY CENTER-MOBILE,,,-81.77443086,30.11863581,,,,,,,,,,,,,,,,
543,ORANGE PARK,CLAY,,,,DISASTER RECOVERY CENTER-MOBILE,,,-81.73493818,30.18624355,,,,,,,,,,,,,,,,
544,NAPLES,COLLIER,,,,DISASTER RECOVERY CENTER-MOBILE,,,-81.67432253,26.22676979,,,,,,,,,,,,,,,,
545,NAPLES,COLLIER,,,,DISASTER RECOVERY CENTER-MOBILE,,,-81.78364846,26.26795356,,,,,,,,,,,,,,,,
546,NAPLES,COLLIER,,,,DISASTER RECOVERY CENTER-MOBILE,,,-81.70279189,26.18423969,,,,,,,,,,,,,,,,
547,NAPLES,COLLIER,,,,DISASTER RECOVERY CENTER-MOBILE,,,-81.76268507,26.10743228,,,,,,,,,,,,,,,,
548,NAPLES,COLLIER,,,,DISASTER RECOVERY CENTER-MOBILE,,,-81.73493870,26.23827336,,,,,,,,,,,,,,,,
549,IMMOKALEE,COLLIER,,,,DISASTER RECOVERY CENTER-MOBILE,,,-81.41942870,26.42313850,,,,,,,,,,,,,,,,
550,ARCADIA,DESOTO,,,,DISASTER RECOVERY CENTER-MOBILE,,,-81.86242950,27.22056264,,,,,,,,,,,,,,,,
551,ARCADIA,DESOTO,,,,DISASTER RECOVERY CENTER-MOBILE,,,-81.85667482,27.21574220,,,,,,,,,,,,,,,,
552,ARCADIA,DESOTO,,,,DISASTER RECOVERY CENTER-MOBILE,,,-81.85657460,27.21601400,,,,,,,,,,,,,,,,
553,ARCADIA,DESOTO,,,,DISASTER RECOVERY CENTER-MOBILE,,,-81.86102386,27.20692855,,,,,,,,,,,,,,,,
554,CROSS CITY,DIXIE,,,,DISASTER RECOVERY CENTER-MOBILE,,,-83.12387812,29.63337070,,,,,,,,,,,,,,,,
555,CROSS CITY,DIXIE,,,,DISASTER RECOVERY CENTER-MOBILE,,,-83.10676288,29.62766275,,,,,,,,,,,,,,,,
556,CROSS CITY,DIXIE,,,,DISASTER RECOVERY CENTER-MOBILE,,,-83.09470658,29.61778774,,,,,,,,,,,,,,,,
557,JACKSONVILLE,DUVAL,,,,DISASTER RECOVERY CENTER-MOBILE,,,-81.71213883,30.37166257,,,,,,,,,,,,,,,,
558,JACKSONVILLE,DUVAL,,,,DISASTER RECOVERY CENTER-MOBILE,,,-81.65265155,30.30505373,,,,,,,,,,,,,,,,
559,JACKSONVILLE,DUVAL,,,,DISASTER RECOVERY CENTER-MOBILE,,,-81.47453297,30.32270262,,,,,,,,,,,,,,,,
560,JACKSONVILLE,DUVAL,,,,DISASTER RECOVERY CENTER-MOBILE,,,-81.72896711,30.39831453,,,,,,,,,,,,,,,,
561,JACKSONVILLE,DUVAL,,,,DISASTER RECOVERY CENTER-MOBILE,,,-81.82539677,30.30258497,,,,,,,,,,,,,,,,
562,JACKSONVILLE,DUVAL,,,,DISASTER RECOVERY CENTER-MOBILE,,,-81.71832864,30.30121997,,,,,,,,,,,,,,,,
563,PENSACOLA,ESCAMBIA,,,,DISASTER RECOVERY CENTER-MOBILE,,,-87.27681181,30.44128066,,,,,,,,,,,,,,,,
564,PENSACOLA,ESCAMBIA,,,,DISASTER RECOVERY CENTER-MOBILE,,,-87.22035310,30.44089188,,,,,,,,,,,,,,,,
565,PENSACOLA,ESCAMBIA,,,,DISASTER RECOVERY CENTER-MOBILE,,,-87.31498444,30.43897423,,,,,,,,,,,,,,,,
566,PENSACOLA,ESCAMBIA,,,,DISASTER RECOVERY CENTER-MOBILE,,,-87.29802471,30.40988469,,,,,,,,,,,,,,,,
567,PENSACOLA,ESCAMBIA,,,,DISASTER RECOVERY CENTER-MOBILE,,,-87.27142322,30.55622822,,,,,,,,,,,,,,,,
568,PENSACOLA,ESCAMBIA,,,,DISASTER RECOVERY CENTER-MOBILE,,,-87.17675753,30.51013568,,,,,,,,,,,,,,,,
569,PENSACOLA,ESCAMBIA,,,,DISASTER RECOVERY CENTER-MOBILE,,,-87.24789039,30.42894889,,,,,,,,,,,,,,,,
570,PENSACOLA,ESCAMBIA,,,,DISASTER RECOVERY CENTER-MOBILE,,,-87.27111020,30.39811287,,,,,,,,,,,,,,,,
571,PENSACOLA,ESCAMBIA,,,,DISASTER RECOVERY CENTER-MOBILE,,,-87.30141838,30.48760002,,,,,,,,,,,,,,,,
572,CENTURY,ESCAMBIA,,,,DISASTER RECOVERY CENTER-MOBILE,,,-87.25794333,30.97614733,,,,,,,,,,,,,,,,
573,CENTURY,ESCAMBIA,,,,DISASTER RECOVERY CENTER-MOBILE,,,-87.32786535,30.96659567,,,,,,,,,,,,,,,,
574,CANTONMENT,ESCAMBIA,,,,DISASTER RECOVERY CENTER-MOBILE,,,-87.32515293,30.65606155,,,,,,,,,,,,,,,,
575,CANTONMENT,ESCAMBIA,,,,DISASTER RECOVERY CENTER-MOBILE,,,-87.32999024,30.60517392,,,,,,,,,,,,,,,,
576,PALM COAST,FLAGLER,,,,DISASTER RECOVERY CENTER-MOBILE,,,-81.23814220,29.55414811,,,,,,,,,,,,,,,,
577,CARRABELLE,FRANKLIN,,,,DISASTER RECOVERY CENTER-MOBILE,,,-84.66591621,29.85739518,,,,,,,,,,,,,,,,
578,CARRABELLE,FRANKLIN,,,,DISASTER RECOVERY CENTER-MOBILE,,,-84.59480425,29.88467743,,,,,,,,,,,,,,,,
579,CARRABELLE,FRANKLIN,,,,DISASTER RECOVERY CENTER-MOBILE,,,-84.59480425,29.88467743,,,,,,,,,,,,,,,,
580,CARRABELLE,FRANKLIN,,,,DISASTER RECOVERY CENTER-MOBILE,,,-84.59480425,29.88467743,,,,,,,,,,,,,,,,
581,APALACHICOLA,FRANKLIN,,,,DISASTER RECOVERY CENTER-MOBILE,,,-85.01594695,29.73001894,,,,,,,,,,,,,,,,
582,TRENTON,GILCHRIST,,,,DISASTER RECOVERY CENTER-MOBILE,,,-82.81798798,29.61564675,,,,,,,,,,,,,,,,
583,TRENTON,GILCHRIST,,,,DISASTER RECOVERY CENTER-MOBILE,,,-82.81810926,29.62114033,,,,,,,,,,,,,,,,
584,TRENTON,GILCHRIST,,,,DISASTER RECOVERY CENTER-MOBILE,,,-82.80783691,29.62633468,,,,,,,,,,,,,,,,
585,BELL,GILCHRIST,,,,DISASTER RECOVERY CENTER-MOBILE,,,-82.85536531,29.67797259,,,,,,,,,,,,,,,,
586,MOORE HAVEN,GLADES,,,,DISASTER RECOVERY CENTER-MOBILE,,,-81.12429745,26.84021744,,,,,,,,,,,,,,,,
587,PORT SAINT JOE,GULF,,,,DISASTER RECOVERY CENTER-MOBILE,,,-85.28904425,29.81542997,,,,,,,,,,,,,,,,
588,PORT SAINT JOE,GULF,,,,DISASTER RECOVERY CENTER-MOBILE,,,-85.28904425,29.81542997,,,,,,,,,,,,,,,,
589,PORT SAINT JOE,GULF,,,,DISASTER RECOVERY CENTER-MOBILE,,,-85.28904425,29.81542997,,,,,,,,,,,,,,,,
590,PORT SAINT JOE,GULF,,,,DISASTER RECOVERY CENTER-MOBILE,,,-85.30203054,29.81257143,,,,,,,,,,,,,,,,
591,WEWAHITCHKA,GULF,,,,DISASTER RECOVERY CENTER-MOBILE,,,-85.19848439,30.11515309,,,,,,,,,,,,,,,,
592,WEWAHITCHKA,GULF,,,,DISASTER RECOVERY CENTER-MOBILE,,,-85.19912626,30.11289904,,,,,,,,,,,,,,,,
593,WHITE SPRINGS,HAMILTON,,,,DISASTER RECOVERY CENTER-MOBILE,,,-82.74939818,30.32825368,,,,,,,,,,,,,,,,
594,JENNINGS,HAMILTON,,,,DISASTER RECOVERY CENTER-MOBILE,,,-83.10515389,30.60056858,,,,,,,,,,,,,,,,
595,ZOLFO SPRINGS,HARDEE,,,,DISASTER RECOVERY CENTER-MOBILE,,,-81.80090989,27.50142509,,,,,,,,,,,,,,,,
596,ZOLFO SPRINGS,HARDEE,,,,DISASTER RECOVERY CENTER-MOBILE,,,-81.79990048,27.50093471,,,,,,,,,,,,,,,,
597,CLEWISTON,HENDRY,,,,DISASTER RECOVERY CENTER-MOBILE,,,-80.93347338,26.74156800,,,,,,,,,,,,,,,,
598,LABELLE,HENDRY,,,,DISASTER RECOVERY CENTER-MOBILE,,,-81.50948824,26.70953052,,,,,,,,,,,,,,,,
599,DADE CITY,HERNANDO,,,,DISASTER RECOVERY CENTER-MOBILE,,,-82.17918954,28.50735732,,,,,,,,,,,,,,,,
600,BROOKSVILLE,HERNANDO,,,,DISASTER RECOVERY CENTER-MOBILE,,,-82.40737479,28.53703799,,,,,,,,,,,,,,,,
601,BROOKSVILLE,HERNANDO,,,,DISASTER RECOVERY CENTER-MOBILE,,,-82.45760071,28.44235871,,,,,,,,,,,,,,,,
602,BROOKSVILLE,HERNANDO,,,,DISASTER RECOVERY CENTER-MOBILE,,,-82.40037978,28.54982342,,,,,,,,,,,,,,,,
603,SEBRING,HIGHLANDS,,,,DISASTER RECOVERY CENTER-MOBILE,,,-81.42117181,27.44147374,,,,,,,,,,,,,,,,
604,TAMPA,HILLSBOROUGH,,,,DISASTER RECOVERY CENTER-MOBILE,,,-82.50726100,28.09380400,,,,,,,,,,,,,,,,
605,PLANT CITY,HILLSBOROUGH,,,,DISASTER RECOVERY CENTER-MOBILE,,,-82.10203041,28.03065050,,,,,,,,,,,,,,,,
606,RUSKIN,HILLSBOROUGH,,,,DISASTER RECOVERY CENTER-MOBILE,,,-82.39295535,27.71643238,,,,,,,,,,,,,,,,
607,WESTVILLE,HOLMES,,,,DISASTER RECOVERY CENTER-MOBILE,,,-85.87681756,30.95261882,,,,,,,,,,,,,,,,
608,VERO BEACH,INDIAN RIVER,,,,DISASTER RECOVERY CENTER-MOBILE,,,-80.45745654,27.63449430,,,,,,,,,,,,,,,,
609,VERO BEACH,INDIAN RIVER,,,,DISASTER RECOVERY CENTER-MOBILE,,,-80.40457800,27.59135799,,,,,,,,,,,,,,,,
610,MONTICELLO,JEFFERSON,,,,DISASTER RECOVERY CENTER-MOBILE,,,-83.86169933,30.55765415,,,,,,,,,,,,,,,,
611,MAYO,LAFAYETTE,,,,DISASTER RECOVERY CENTER-MOBILE,,,-83.16554716,30.05243458,,,,,,,,,,,,,,,,
612,MAYO,LAFAYETTE,,,,DISASTER RECOVERY CENTER-MOBILE,,,-83.16394540,30.05466296,,,,,,,,,,,,,,,,
613,MAYO,LAFAYETTE,,,,DISASTER RECOVERY CENTER-MOBILE,,,-83.16478698,30.06298972,,,,,,,,,,,,,,,,
614,330 3RD ST.,LAKE,,,,DISASTER RECOVERY CENTER-MOBILE,,,-81.75999866,28.56021358,,,,,,,,,,,,,,,,
615,LEESBURG,LAKE,,,,DISASTER RECOVERY CENTER-MOBILE,,,-81.86553836,28.72460786,,,,,,,,,,,,,,,,
616,TAVARES,LAKE,,,,DISASTER RECOVERY CENTER-MOBILE,,,-81.73692915,28.80278843,,,,,,,,,,,,,,,,
617,TAVARES,LAKE,,,,DISASTER RECOVERY CENTER-MOBILE,,,-81.74820822,28.78888206,,,,,,,,,,,,,,,,
618,EUSTIS,LAKE,,,,DISASTER RECOVERY CENTER-MOBILE,,,-81.69894808,28.87733416,,,,,,,,,,,,,,,,
619,CLERMONT,LAKE,,,,DISASTER RECOVERY CENTER-MOBILE,,,-81.72421807,28.45558118,,,,,,,,,,,,,,,,
620,FORT MYERS,LEE,,,,DISASTER RECOVERY CENTER-MOBILE,,,-81.88779198,26.55598336,,,,,,,,,,,,,,,,
621,LEHIGH ACRES,LEE,,,,DISASTER RECOVERY CENTER-MOBILE,,,-81.65217584,26.60799008,,,,,,,,,,,,,,,,
622,CEDAR KEY,LEVY,,,,DISASTER RECOVERY CENTER-MOBILE,,,-83.03189709,29.13612043,,,,,,,,,,,,,,,,
623,HOSFORD,LIBERTY,,,,DISASTER RECOVERY CENTER-MOBILE,,,-84.97868919,30.02057425,,,,,,,,,,,,,,,,
624,HOSFORD,LIBERTY,,,,DISASTER RECOVERY CENTER-MOBILE,,,-84.97868919,30.02057425,,,,,,,,,,,,,,,,
625,HOSFORD,LIBERTY,,,,DISASTER RECOVERY CENTER-MOBILE,,,-84.97868919,30.02057425,,,,,,,,,,,,,,,,
626,HOSFORD,LIBERTY,,,,DISASTER RECOVERY CENTER-MOBILE,,,-84.77721900,30.39552800,,,,,,,,,,,,,,,,
627,LEE,MADISON,,,,DISASTER RECOVERY CENTER-MOBILE,,,-83.29991707,30.42247169,,,,,,,,,,,,,,,,
628,GREENVILLE,MADISON,,,,DISASTER RECOVERY CENTER-MOBILE,,,-83.63137664,30.46867625,,,,,,,,,,,,,,,,
629,BRADENTON,MANATEE,,,,DISASTER RECOVERY CENTER-MOBILE,,,-82.56736968,27.46756366,,,,,,,,,,,,,,,,
630,BRADENTON,MANATEE,,,,DISASTER RECOVERY CENTER-MOBILE,,,-82.61655054,27.47396123,,,,,,,,,,,,,,,,
631,BRADENTON,MANATEE,,,,DISASTER RECOVERY CENTER-MOBILE,,,-82.46243191,27.44397915,,,,,,,,,,,,,,,,
632,BRADENTON,MANATEE,,,,DISASTER RECOVERY CENTER-MOBILE,,,-82.56535410,27.46432532,,,,,,,,,,,,,,,,
633,PALMETTO,MANATEE,,,,DISASTER RECOVERY CENTER-MOBILE,,,-82.54686360,27.52200274,,,,,,,,,,,,,,,,
634,OCALA,MARION,,,,DISASTER RECOVERY CENTER-MOBILE,,,-82.06299064,29.14032988,,,,,,,,,,,,,,,,
635,OCALA,MARION,,,,DISASTER RECOVERY CENTER-MOBILE,,,-82.10273043,29.18236839,,,,,,,,,,,,,,,,
636,OCALA,MARION,,,,DISASTER RECOVERY CENTER-MOBILE,,,-82.13175752,29.20975822,,,,,,,,,,,,,,,,
637,OCALA,MARION,,,,DISASTER RECOVERY CENTER-MOBILE,,,-82.09980250,29.18713142,,,,,,,,,,,,,,,,
638,OCALA,MARION,,,,DISASTER RECOVERY CENTER-MOBILE,,,-82.23163573,29.15278606,,,,,,,,,,,,,,,,
639,OCALA,MARION,,,,DISASTER RECOVERY CENTER-MOBILE,,,-82.22072919,29.17196503,,,,,,,,,,,,,,,,
640,OCALA,MARION,,,,DISASTER RECOVERY CENTER-MOBILE,,,-82.22072919,29.17196503,,,,,,,,,,,,,,,,
641,OCALA,MARION,,,,DISASTER RECOVERY CENTER-MOBILE,,,-82.22072919,29.17196503,,,,,,,,,,,,,,,,
642,CITRA,MARION,,,,DISASTER RECOVERY CENTER-MOBILE,,,-82.13329873,29.36820977,,,,,,,,,,,,,,,,
643,DUNNELLON,MARION,,,,DISASTER RECOVERY CENTER-MOBILE,,,-82.37020853,29.06160285,,,,,,,,,,,,,,,,
644,HOBE SOUND,MARTIN,,,,DISASTER RECOVERY CENTER-MOBILE,,,-80.14490090,27.08118290,,,,,,,,,,,,,,,,
645,JENSEN BEACH,MARTIN,,,,DISASTER RECOVERY CENTER-MOBILE,,,-80.22136100,27.22423500,,,,,,,,,,,,,,,,
646,STUART,MARTIN,,,,DISASTER RECOVERY CENTER-MOBILE,,,-80.22704694,27.17253112,,,,,,,,,,,,,,,,
647,STUART,MARTIN,,,,DISASTER RECOVERY CENTER-MOBILE,,,-80.24751716,27.19571129,,,,,,,,,,,,,,,,
648,INDIANTOWN,MARTIN,,,,DISASTER RECOVERY CENTER-MOBILE,,,-80.46673731,27.02153083,,,,,,,,,,,,,,,,
649,MIAMI,MIAMI-DADE,,,,DISASTER RECOVERY CENTER-MOBILE,,,-80.22056219,25.77664119,,,,,,,,,,,,,,,,
650,MIAMI,MIAMI-DADE,,,,DISASTER RECOVERY CENTER-MOBILE,,,-80.36409484,25.57123097,,,,,,,,,,,,,,,,
651,HOMESTEAD,MIAMI-DADE,,,,DISASTER RECOVERY CENTER-MOBILE,,,-80.44633928,25.47640521,,,,,,,,,,,,,,,,
652,HIALEAH,MIAMI-DADE,,,,DISASTER RECOVERY CENTER-MOBILE,,,-80.28525082,25.86462361,,,,,,,,,,,,,,,,
653,MARATHON,MONROE,,,,DISASTER RECOVERY CENTER-MOBILE,,,,,,,,,,,,,,,,,,,,
654,KEY WEST,MONROE,,,,DISASTER RECOVERY CENTER-MOBILE,,,-81.80036001,24.55495749,,,,,,,,,,,,,,,,
655,BIG PINE KEY,MONROE,,,,DISASTER RECOVERY CENTER-MOBILE,,,-81.34765270,24.67780212,,,,,,,,,,,,,,,,
656,ISLAMORADA,MONROE,,,,DISASTER RECOVERY CENTER-MOBILE,,,-80.63626191,24.91770924,,,,,,,,,,,,,,,,
657,YULEE,NASSAU,,,,DISASTER RECOVERY CENTER-MOBILE,,,-81.63510616,30.62241858,,,,,,,,,,,,,,,,
658,YULEE,NASSAU,,,,DISASTER RECOVERY CENTER-MOBILE,,,-81.55362332,30.62919446,,,,,,,,,,,,,,,,
659,FERNANDINA BEACH,NASSAU,,,,DISASTER RECOVERY CENTER-MOBILE,,,-81.51871762,30.61927870,,,,,,,,,,,,,,,,
660,NICEVILLE,OKALOOSA,,,,DISASTER RECOVERY CENTER-MOBILE,,,-86.41853504,30.48980828,,,,,,,,,,,,,,,,
661,OKEECHOBEE,OKEECHOBEE,,,,DISASTER RECOVERY CENTER-MOBILE,,,-80.78401256,27.24955979,,,,,,,,,,,,,,,,
662,OKEECHOBEE,OKEECHOBEE,,,,DISASTER RECOVERY CENTER-MOBILE,,,-80.78378200,27.23876100,,,,,,,,,,,,,,,,
663,ORLANDO,ORANGE,,,,DISASTER RECOVERY CENTER-MOBILE,,,-81.44325865,28.55848646,,,,,,,,,,,,,,,,
664,ORLANDO,ORANGE,,,,DISASTER RECOVERY CENTER-MOBILE,,,-81.49722000,28.53921900,,,,,,,,,,,,,,,,
665,ORLANDO,ORANGE,,,,DISASTER RECOVERY CENTER-MOBILE,,,-81.22191000,28.56742000,,,,,,,,,,,,,,,,
666,ORLANDO,ORANGE,,,,DISASTER RECOVERY CENTER-MOBILE,,,-81.24438076,28.56611618,,,,,,,,,,,,,,,,
667,ORLANDO,ORANGE,,,,DISASTER RECOVERY CENTER-MOBILE,,,-81.24438076,28.56611618,,,,,,,,,,,,,,,,
668,ORLANDO,ORANGE,,,,DISASTER RECOVERY CENTER-MOBILE,,,-81.22191000,28.56742000,,,,,,,,,,,,,,,,
669,ORLANDO,ORANGE,,,,DISASTER RECOVERY CENTER-MOBILE,,,-81.22191000,28.56742000,,,,,,,,,,,,,,,,
670,ORLANDO,ORANGE,,,,DISASTER RECOVERY CENTER-MOBILE,,,-81.41582825,28.50188438,,,,,,,,,,,,,,,,
671,ORLANDO,ORANGE,,,,DISASTER RECOVERY CENTER-MOBILE,,,-81.24438076,28.56611618,,,,,,,,,,,,,,,,
672,ORLANDO,ORANGE,,,,DISASTER RECOVERY CENTER-MOBILE,,,-81.36982764,28.42960579,,,,,,,,,,,,,,,,
673,ORLANDO,ORANGE,,,,DISASTER RECOVERY CENTER-MOBILE,,,-81.46501452,28.54220542,,,,,,,,,,,,,,,,
674,CHRISTMAS,ORANGE,,,,DISASTER RECOVERY CENTER-MOBILE,,,-81.02180904,28.56177078,,,,,,,,,,,,,,,,
675,CHRISTMAS,ORANGE,,,,DISASTER RECOVERY CENTER-MOBILE,,,-81.02180904,28.56177078,,,,,,,,,,,,,,,,
676,CHRISTMAS,ORANGE,,,,DISASTER RECOVERY CENTER-MOBILE,,,-81.02180904,28.56177078,,,,,,,,,,,,,,,,
677,MOUNT DORA,ORANGE,,,,DISASTER RECOVERY CENTER-MOBILE,,,-81.61949900,28.73786900,,,,,,,,,,,,,,,,
678,OCOEE,ORANGE,,,,DISASTER RECOVERY CENTER-MOBILE,,,-81.51749900,28.55509900,,,,,,,,,,,,,,,,
679,KISSIMMEE,OSCEOLA,,,,DISASTER RECOVERY CENTER-MOBILE,,,-81.36786691,28.29719298,,,,,,,,,,,,,,,,
680,BELLE GLADE,PALM BEACH,,,,DISASTER RECOVERY CENTER-MOBILE,,,-80.66651624,26.72532122,,,,,,,,,,,,,,,,
681,WEST PALM BEACH,PALM BEACH,,,,DISASTER RECOVERY CENTER-MOBILE,,,-80.07027267,26.72806123,,,,,,,,,,,,,,,,
682,BOCA RATON,PALM BEACH,,,,DISASTER RECOVERY CENTER-MOBILE,,,-80.12766535,26.34620087,,,,,,,,,,,,,,,,
683,BOYNTON BEACH,PALM BEACH,,,,DISASTER RECOVERY CENTER-MOBILE,,,-80.06288945,26.52574778,,,,,,,,,,,,,,,,
684,HUDSON,PASCO,,,,DISASTER RECOVERY CENTER-MOBILE,,,-82.62430475,28.39057203,,,,,,,,,,,,,,,,
685,LAND O LAKES,PASCO,,,,DISASTER RECOVERY CENTER-MOBILE,,,-82.46015900,28.23573900,,,,,,,,,,,,,,,,
686,NEW PORT RICHEY,PASCO,,,,DISASTER RECOVERY CENTER-MOBILE,,,-82.66820000,28.22964900,,,,,,,,,,,,,,,,
687,DADE CITY,PASCO,,,,DISASTER RECOVERY CENTER-MOBILE,,,-82.16655900,28.39562000,,,,,,,,,,,,,,,,
688,ZEPHYRHILLS,PASCO,,,,DISASTER RECOVERY CENTER-MOBILE,,,-82.14702900,28.22461900,,,,,,,,,,,,,,,,
689,TARPON SPRINGS,PINELLAS,,,,DISASTER RECOVERY CENTER-MOBILE,,,-82.73897628,28.13348722,,,,,,,,,,,,,,,,
690,LARGO,PINELLAS,,,,DISASTER RECOVERY CENTER-MOBILE,,,-82.80690200,27.89221000,,,,,,,,,,,,,,,,
691,SAINT PETERSBURG,PINELLAS,,,,DISASTER RECOVERY CENTER-MOBILE,,,-82.77180721,27.80344067,,,,,,,,,,,,,,,,
692,WINTER HAVEN,POLK,,,,DISASTER RECOVERY CENTER-MOBILE,,,-81.72936441,28.00365751,,,,,,,,,,,,,,,,
693,WINTER HAVEN,POLK,,,,DISASTER RECOVERY CENTER-MOBILE,,,-81.81038800,28.00000000,,,,,,,,,,,,,,,,
694,LAKELAND,POLK,,,,DISASTER RECOVERY CENTER-MOBILE,,,-81.97796000,28.09122900,,,,,,,,,,,,,,,,
695,PALATKA,PUTNAM,,,,DISASTER RECOVERY CENTER-MOBILE,,,-81.70809190,29.64526778,,,,,,,,,,,,,,,,
696,PALATKA,PUTNAM,,,,DISASTER RECOVERY CENTER-MOBILE,,,-81.68750528,29.66292585,,,,,,,,,,,,,,,,
697,PALATKA,PUTNAM,,,,DISASTER RECOVERY CENTER-MOBILE,,,-81.65895695,29.66546539,,,,,,,,,,,,,,,,
698,BOSTWICK,PUTNAM,,,,DISASTER RECOVERY CENTER-MOBILE,,,-81.63342193,29.77149195,,,,,,,,,,,,,,,,
699,CRESCENT CITY,PUTNAM,,,,DISASTER RECOVERY CENTER-MOBILE,,,-81.53539398,29.46502328,,,,,,,,,,,,,,,,
700,EAST PALATKA,PUTNAM,,,,DISASTER RECOVERY CENTER-MOBILE,,,-81.58887478,29.64186914,,,,,,,,,,,,,,,,
701,SAINT AUGUSTINE,ST. JOHNS,,,,DISASTER RECOVERY CENTER-MOBILE,,,-81.33645944,29.93903141,,,,,,,,,,,,,,,,
702,SAINT AUGUSTINE,ST. JOHNS,,,,DISASTER RECOVERY CENTER-MOBILE,,,-81.35342373,29.88850030,,,,,,,,,,,,,,,,
703,FORT PIERCE,ST. LUCIE,,,,DISASTER RECOVERY CENTER-MOBILE,,,-80.34483972,27.42638545,,,,,,,,,,,,,,,,
704,FORT PIERCE,ST. LUCIE,,,,DISASTER RECOVERY CENTER-MOBILE,,,-80.34862969,27.42707210,,,,,,,,,,,,,,,,
705,PORT SAINT LUCIE,ST. LUCIE,,,,DISASTER RECOVERY CENTER-MOBILE,,,-80.36680100,27.34804200,,,,,,,,,,,,,,,,
706,PORT SAINT LUCIE,ST. LUCIE,,,,DISASTER RECOVERY CENTER-MOBILE,,,-80.27982600,27.30272700,,,,,,,,,,,,,,,,
707,SARASOTA,SARASOTA,,,,DISASTER RECOVERY CENTER-MOBILE,,,-82.54762724,27.34331891,,,,,,,,,,,,,,,,
708,SARASOTA,SARASOTA,,,,DISASTER RECOVERY CENTER-MOBILE,,,-82.50092759,27.28540656,,,,,,,,,,,,,,,,
709,SARASOTA,SARASOTA,,,,DISASTER RECOVERY CENTER-MOBILE,,,-82.53317216,27.36603863,,,,,,,,,,,,,,,,
710,VENICE,SARASOTA,,,,DISASTER RECOVERY CENTER-MOBILE,,,-82.44696254,27.09515979,,,,,,,,,,,,,,,,
711,ALTAMONTE SPRINGS,SEMINOLE,,,,DISASTER RECOVERY CENTER-MOBILE,,,-81.37582610,28.66566239,,,,,,,,,,,,,,,,
712,OVIEDO,SEMINOLE,,,,DISASTER RECOVERY CENTER-MOBILE,,,-81.23617408,28.66084941,,,,,,,,,,,,,,,,
713,CASSELBERRY,SEMINOLE,,,,DISASTER RECOVERY CENTER-MOBILE,,,-81.33488913,28.66141963,,,,,,,,,,,,,,,,
714,SANFORD,SEMINOLE,,,,DISASTER RECOVERY CENTER-MOBILE,,,-81.33639225,28.80573656,,,,,,,,,,,,,,,,
715,BUSHNELL,SUMTER,,,,DISASTER RECOVERY CENTER-MOBILE,,,-82.10494949,28.69130376,,,,,,,,,,,,,,,,
716,BUSHNELL,SUMTER,,,,DISASTER RECOVERY CENTER-MOBILE,,,-82.11304280,28.67625150,,,,,,,,,,,,,,,,
717,BUSHNELL,SUMTER,,,,DISASTER RECOVERY CENTER-MOBILE,,,-82.10535008,28.66826614,,,,,,,,,,,,,,,,
718,WILDWOOD,SUMTER,,,,DISASTER RECOVERY CENTER-MOBILE,,,-82.00264686,28.83189585,,,,,,,,,,,,,,,,
719,Wildwood,SUMTER,,,,DISASTER RECOVERY CENTER-MOBILE,,,-81.98306430,28.82479382,,,,,,,,,,,,,,,,
720,LIVE OAK,SUWANNEE,,,,DISASTER RECOVERY CENTER-MOBILE,,,-83.00588449,30.29113492,,,,,,,,,,,,,,,,
721,LAKE BUTLER,UNION,,,,DISASTER RECOVERY CENTER-MOBILE,,,-82.34779746,30.01735189,,,,,,,,,,,,,,,,
722,LAKE BUTLER,UNION,,,,DISASTER RECOVERY CENTER-MOBILE,,,-82.33944958,30.02634653,,,,,,,,,,,,,,,,
723,LAKE BUTLER,UNION,,,,DISASTER RECOVERY CENTER-MOBILE,,,-82.33853753,30.01570708,,,,,,,,,,,,,,,,
724,DAYTONA BEACH,VOLUSIA,,,,DISASTER RECOVERY CENTER-MOBILE,,,-81.07862669,29.21296012,,,,,,,,,,,,,,,,
725,CRAWFORDVILLE,WAKULLA,,,,DISASTER RECOVERY CENTER-MOBILE,,,-84.37751246,30.11655744,,,,,,,,,,,,,,,,
726,DEFUNIAK SPRINGS,WALTON,,,,DISASTER RECOVERY CENTER-MOBILE,,,-86.12458350,30.74342077,,,,,,,,,,,,,,,,
727,DEFUNIAK SPRINGS,WALTON,,,,DISASTER RECOVERY CENTER-MOBILE,,,-86.26675000,30.98341000,,,,,,,,,,,,,,,,
728,DEFUNIAK SPRINGS,WALTON,,,,DISASTER RECOVERY CENTER-MOBILE,,,-86.11370857,30.73291094,,,,,,,,,,,,,,,,
729,SANTA ROSA BEACH,WALTON,,,,DISASTER RECOVERY CENTER-MOBILE,,,-86.23759000,30.36980200,,,,,,,,,,,,,,,,
730,GAINESVILLE,ALACHUA,,,,DISASTER RECOVERY CENTER,,,,,-82.28027223,29.68244134,,,,,,,,,,,,,,
731,GAINESVILLE,ALACHUA,,,,DISASTER RECOVERY CENTER,,,,,-82.28827350,29.65153310,,,,,,,,,,,,,,
732,GAINESVILLE,ALACHUA,,,,DISASTER RECOVERY CENTER,,,,,-82.31096930,29.66781400,,,,,,,,,,,,,,
733,GAINESVILLE,ALACHUA,,,,DISASTER RECOVERY CENTER,,,,,-82.38790850,29.68195370,,,,,,,,,,,,,,
734,GAINESVILLE,ALACHUA,,,,DISASTER RECOVERY CENTER,,,,,-82.37134700,29.66151300,,,,,,,,,,,,,,
735,GAINESVILLE,ALACHUA,,,,DISASTER RECOVERY CENTER,,,,,-82.35290756,29.70979567,,,,,,,,,,,,,,
736,HIGH SPRINGS,ALACHUA,,,,DISASTER RECOVERY CENTER,,,,,-82.60787460,29.77814550,,,,,,,,,,,,,,
737,NEWBERRY ,ALACHUA,,,,DISASTER RECOVERY CENTER,,,,,-82.61078510,29.64513260,,,,,,,,,,,,,,
738,WALDO,ALACHUA,,,,DISASTER RECOVERY CENTER,,,,,-82.17123630,29.79041410,,,,,,,,,,,,,,
739,HAWTHORNE,ALACHUA,,,,DISASTER RECOVERY CENTER,,,,,-82.08682610,29.59275220,,,,,,,,,,,,,,
740,ARCHER,ALACHUA,,,,DISASTER RECOVERY CENTER,,,,,-82.51969660,29.53206440,,,,,,,,,,,,,,
741,GLEN SAINT MARY,BAKER,,,,DISASTER RECOVERY CENTER,,,,,-82.15459886,30.28217508,,,,,,,,,,,,,,
742,GLEN SAINT MARY,BAKER,,,,DISASTER RECOVERY CENTER,,,,,-82.27698551,30.24737573,,,,,,,,,,,,,,
743,MACCLENNY,BAKER,,,,DISASTER RECOVERY CENTER,,,,,-82.12681993,30.28658992,,,,,,,,,,,,,,
744,MACCLENNY,BAKER,,,,DISASTER RECOVERY CENTER,,,,,-82.13265735,30.30543471,,,,,,,,,,,,,,
745,MACCLENNY,BAKER,,,,DISASTER RECOVERY CENTER,,,,,-82.13784900,30.28030300,,,,,,,,,,,,,,
746,PANAMA CITY,BAY,,,,DISASTER RECOVERY CENTER,,,,,-85.74907986,30.15374025,,,,,,,,,,,,,,
747,PANAMA CITY,BAY,,,,DISASTER RECOVERY CENTER,,,,,-85.68439657,30.38657328,,,,,,,,,,,,,,
748,STARKE,BRADFORD,,,,DISASTER RECOVERY CENTER,,,,,-82.10610430,29.96400788,,,,,,,,,,,,,,
